ms_today;input_voltage;temp_mos_max;temp_mos_1;temp_mos_2;temp_mos_3;temp_motor;current_motor;current_in;d_axis_current;q_axis_current;erpm;duty_cycle;amp_hours_used;amp_hours_charged;watt_hours_used;watt_hours_charged;tachometer;tachometer_abs;encoder_position;fault_code;vesc_id;d_axis_voltage;q_axis_voltage;ms_today_setup;amp_hours_setup;amp_hours_charged_setup;watt_hours_setup;watt_hours_charged_setup;battery_level;battery_wh_tot;current_in_setup;current_motor_setup;speed_meters_per_sec;tacho_meters;tacho_abs_meters;num_vescs;ms_today_imu;roll;pitch;yaw;accX;accY;accZ;gyroX;gyroY;gyroZ;gnss_posTime;gnss_lat;gnss_lon;gnss_alt;gnss_gVel;gnss_vVel;gnss_hAcc;gnss_vAcc;
46733642;12.1;27.3;0;0;0;-58.3;-0.35;0;0;0;0;0.001;0;0;0;0.0001;2;2;0;0;76;0;0;46700543;0;0;0;0;0;0;0;0;0;0;0;1;-1;0;0;0;0;0;0;0;0;0;46732000;37.34958719;-121.93069758;-5.04046631;0.00000000;0.00000000;3.79009247;3.27511168;
46736004;12.2;27.5;0;0;0;-61.9;-0.35;0;0;0;0;0.001;0;0;0;0.0001;2;2;0;0;76;0;0;46733671;0;0;0;0.0001;0.843;56.165;0;-0.41;0;0.004;0.004;1;46733677;0;0;0;0;0;0;0;0;0;46735000;37.34959278;-121.93069931;-4.53649902;0.00000000;0.00000000;3.79009247;3.24388790;
46736106;12.3;27.4;0;0;0;-63.1;-0.32;0;0;0;0;0;0;0;0;0.0001;2;2;0;0;76;0;0;46736022;0;0;0;0.0001;0.843;56.165;0;0.31;0;0.004;0.004;1;46736052;0;0;0;0;0;0;0;0;0;46735000;37.34959278;-121.93069931;-4.53649902;0.00000000;0.00000000;3.79009247;3.24388790;
46736256;12.1;27.3;0;0;0;-60.1;-0.29;0;0;0;0;0;0;0;0;0.0001;2;2;0;0;76;0;0;46736154;0;0;0;0.0001;0.91;60.609;0;1.06;0;0.004;0.004;1;46736154;0;0;0;0;0;0;0;0;0;46735000;37.34959278;-121.93069931;-4.53649902;0.00000000;0.00000000;3.79009247;3.24388790;
46736394;12.2;27.4;0;0;0;-59.9;-0.29;0;0;0;0;0;0;0;0;0.0001;2;2;0;0;76;0;0;46736257;0;0;0;0.0001;0.854;56.901;0;-1.65;0;0.004;0.004;1;46736308;0;0;0;0;0;0;0;0;0;46735000;37.34959278;-121.93069931;-4.53649902;0.00000000;0.00000000;3.79009247;3.24388790;
46736491;12.3;27.3;0;0;0;-59.6;-0.3;0;0;0;0;0.001;0;0;0;0.0001;2;2;0;0;76;0;0;46736395;0;0;0;0.0001;0.837;55.798;0;0;0;0.004;0.004;1;46736442;0;0;0;0;0;0;0;0;0;46735000;37.34959278;-121.93069931;-4.53649902;0.00000000;0.00000000;3.79009247;3.24388790;
46736688;12.1;27.4;0;0;0;-63.1;-0.14;0;0;0;0;0.001;0;0;0;0.0001;2;2;0;0;76;0;0;46736537;0;0;0;0.0001;0.921;61.356;0;1.59;0;0.004;0.004;1;46736546;0;0;0;0;0;0;0;0;0;46735000;37.34959278;-121.93069931;-4.53649902;0.00000000;0.00000000;3.79009247;3.24388790;
46736790;12.3;27.4;0;0;0;-60.6;-0.32;0;0;0;0;0;0;0;0;0.0001;2;2;0;0;76;0;0;46736739;0;0;0;0.0001;0.898;59.864;0;0.72;0;0.004;0.004;1;46736739;0;0;0;0;0;0;0;0;0;46736000;37.34959308;-121.93070122;-4.00817871;0.00000000;0.00000000;3.79009247;3.30249190;
46736940;12.3;27.4;0;0;0;-61.7;-0.34;0;0;0;0;0.001;0;0;0;0.0001;2;2;0;0;76;0;0;46736893;0;0;0;0.0001;0.91;60.609;0;2.14;0;0.004;0.004;1;46736893;0;0;0;0;0;0;0;0;0;46736000;37.34959308;-121.93070122;-4.00817871;0.00000000;0.00000000;3.79009247;3.30249190;
46737042;12.2;27.5;0;0;0;-61.7;-0.32;0;0;0;0;0.001;0;0;0;0.0001;2;2;0;0;76;0;0;46736995;0;0;0;0.0001;0.854;56.901;0;1.7;0;0.004;0.004;1;46737024;0;0;0;0;0;0;0;0;0;46736000;37.34959308;-121.93070122;-4.00817871;0.00000000;0.00000000;3.79009247;3.30249190;
46737126;12.4;27.3;0;0;0;-58.3;-0.38;0;0;0;0;0.001;0;0;0;0.0001;2;2;0;0;76;0;0;46736995;0;0;0;0.0001;0.854;56.901;0;1.7;0;0.004;0.004;1;46737024;0;0;0;0;0;0;0;0;0;46736000;37.34959308;-121.93070122;-4.00817871;0.00000000;0.00000000;3.79009247;3.30249190;
46737226;12.2;27.4;0;0;0;-61.2;-0.25;0;0;0;0;0.001;0;0;0;0.0001;2;2;0;0;76;0;0;46737127;0;0;0;0.0001;0.832;55.431;0;0.42;0;0.004;0.004;1;46737174;0;0;0;0;0;0;0;0;0;46736000;37.34959308;-121.93070122;-4.00817871;0.00000000;0.00000000;3.79009247;3.30249190;
46737378;12.3;27.5;0;0;0;-62;-0.34;0;0;0;0;0;0;0;0;0.0001;2;2;0;0;76;0;0;46737278;0;0;0;0.0001;0.882;58.749;0;1.65;0;0.004;0.004;1;46737278;0;0;0;0;0;0;0;0;0;46736000;37.34959308;-121.93070122;-4.00817871;0.00000000;0.00000000;3.79009247;3.30249190;
46737467;12.3;27.3;0;0;0;-59;-0.41;0;0;0;0;0.001;0;0;0;0.0001;2;2;0;0;76;0;0;46737425;0;0;0;0.0001;0.887;59.121;0;-0.05;0;0.004;0.004;1;46737425;0;0;0;0;0;0;0;0;0;46736000;37.34959308;-121.93070122;-4.00817871;0.00000000;0.00000000;3.79009247;3.30249190;
46737577;12.3;27.4;0;0;0;-60.3;-0.25;0;0;0;0;0.001;0;0;0;0.0001;2;2;0;0;76;0;0;46737528;0;0;0;0.0001;0.876;58.379;0;0.84;0;0.004;0.004;1;46737562;0;0;0;0;0;0;0;0;0;46736000;37.34959308;-121.93070122;-4.00817871;0.00000000;0.00000000;3.79009247;3.30249190;
46737760;12.3;27.4;0;0;0;-61.8;-0.38;0;0;0;0;0.001;0;0;0;0.0001;2;2;0;0;76;0;0;46737713;0;0;0;0.0001;0.854;56.901;0;0.36;0;0.004;0.004;1;46737562;0;0;0;0;0;0;0;0;0;46737000;37.34959408;-121.93069721;-3.90173340;0.00000000;0.00000000;3.79009247;3.35251188;
46737912;12.2;27.3;0;0;0;-57.2;-0.26;0;0;0;0;0;0;0;0;0.0001;2;2;0;0;76;0;0;46737858;0;0;0;0.0001;0.898;59.864;0;1.66;0;0.004;0.004;1;46737858;0;0;0;0;0;0;0;0;0;46737000;37.34959408;-121.93069721;-3.90173340;0.00000000;0.00000000;3.79009247;3.35251188;
46738031;12.3;27.3;0;0;0;-58.4;-0.34;0;0;0;0;0;0;0;0;0.0001;2;2;0;0;76;0;0;46738012;0;0;0;0.0001;0.865;57.639;0;-0.69;0;0.004;0.004;1;46738030;0;0;0;0;0;0;0;0;0;46737000;37.34959408;-121.93069721;-3.90173340;0.00000000;0.00000000;3.79009247;3.35251188;
46738096;12.1;27.3;0;0;0;-58.5;-0.38;0;0;0;0;0;0;0;0;0.0001;2;2;0;0;76;0;0;46738012;0;0;0;0.0001;0.865;57.639;0;-0.69;0;0.004;0.004;1;46738030;0;0;0;0;0;0;0;0;0;46737000;37.34959408;-121.93069721;-3.90173340;0.00000000;0.00000000;3.79009247;3.35251188;
46738148;12.2;27.4;0;0;0;-61.6;-0.35;0;0;0;0;0;0;0;0;0.0001;2;2;0;0;76;0;0;46738131;0;0;0;0.0001;0.876;58.379;0;0.66;0;0.004;0.004;1;46738131;0;0;0;0;0;0;0;0;0;46737000;37.34959408;-121.93069721;-3.90173340;0.00000000;0.00000000;3.79009247;3.35251188;
46738249;12.2;27.3;0;0;0;-57.8;-0.25;0;0;0;0;0.001;0;0;0;0.0001;2;2;0;0;76;0;0;46738212;0;0;0;0.0001;0.876;58.379;0;-0.21;0;0.004;0.004;1;46738212;0;0;0;0;0;0;0;0;0;46737000;37.34959408;-121.93069721;-3.90173340;0.00000000;0.00000000;3.79009247;3.35251188;
46738337;12.3;27.4;0;0;0;-59.1;-0.34;0;0;0;0;0;0;0;0;0.0001;2;2;0;0;76;0;0;46738212;0;0;0;0.0001;0.876;58.379;0;-0.21;0;0.004;0.004;1;46738212;0;0;0;0;0;0;0;0;0;46737000;37.34959408;-121.93069721;-3.90173340;0.00000000;0.00000000;3.79009247;3.35251188;
46738431;12.2;27.3;0;0;0;-58.3;-0.27;0;0;0;0;0.001;0;0;0;0.0001;2;2;0;0;76;0;0;46738363;0;0;0;0.0001;0.848;56.533;0;-0.23;0;0.004;0.004;1;46738363;0;0;0;0;0;0;0;0;0;46737000;37.34959408;-121.93069721;-3.90173340;0.00000000;0.00000000;3.79009247;3.35251188;
46738480;12.4;27.4;0;0;0;-59.8;-0.32;0;0;0;0;0.001;0;0;0;0.0001;2;2;0;0;76;0;0;46738432;0;0;0;0.0001;0.871;58.009;0;-1.67;0;0.004;0.004;1;46738449;0;0;0;0;0;0;0;0;0;46737000;37.34959408;-121.93069721;-3.90173340;0.00000000;0.00000000;3.79009247;3.35251188;
46738548;12.2;27.3;0;0;0;-58.2;-0.34;0;0;0;0;0;0;0;0;0.0001;2;2;0;0;76;0;0;46738482;0;0;0;0.0001;0.832;55.431;0;-0.87;0;0.004;0.004;1;46738449;0;0;0;0;0;0;0;0;0;46737000;37.34959408;-121.93069721;-3.90173340;0.00000000;0.00000000;3.79009247;3.35251188;
46738633;12.2;27.3;0;0;0;-58.4;-0.33;0;0;0;0;0.001;0;0;0;0.0001;2;2;0;0;76;0;0;46738573;0;0;0;0.0001;0.848;56.533;0;0.19;0;0.004;0.004;1;46738564;0;0;0;0;0;0;0;0;0;46737000;37.34959408;-121.93069721;-3.90173340;0.00000000;0.00000000;3.79009247;3.35251188;
46738717;12.3;27.3;0;0;0;-58.2;-0.35;0;0;0;0;0.001;0;0;0;0.0001;2;2;0;0;76;0;0;46738633;0;0;0;0.0001;0.871;58.009;0;-1.24;0;0.004;0.004;1;46738665;0;0;0;0;0;0;0;0;0;46737000;37.34959408;-121.93069721;-3.90173340;0.00000000;0.00000000;3.79009247;3.35251188;
46738850;12.3;27.4;0;0;0;-59.6;-0.34;0;0;0;0;0;0;0;0;0.0001;2;2;0;0;76;0;0;46738732;0;0;0;0.0001;0.865;57.639;0;-1.03;0;0.004;0.004;1;46738765;0;0;0;0;0;0;0;0;0;46738000;37.34959441;-121.93070063;-3.78732300;0.00000000;0.00000000;3.94690156;3.43824315;
46738931;12.2;27.4;0;0;0;-59.4;-0.29;0;0;0;0;0.001;0;0;0;0.0001;2;2;0;0;76;0;0;46738851;0;0;0;0.0001;0.815;54.333;0;1.27;0;0.004;0.004;1;46738885;0;0;0;0;0;0;0;0;0;46738000;37.34959441;-121.93070063;-3.78732300;0.00000000;0.00000000;3.94690156;3.43824315;
46739010;12.3;27.5;0;0;0;-99.9;-0.38;0;0;0;0;0.001;0;0;0;0.0001;2;2;0;0;76;0;0;46738964;0;0;0;0.0001;0.865;57.639;0;-0.06;0;0.004;0.004;1;46738964;0;0;0;0;0;0;0;0;0;46738000;37.34959441;-121.93070063;-3.78732300;0.00000000;0.00000000;3.94690156;3.43824315;
46739081;12.2;27.5;0;0;0;-82.7;-0.29;0;0;0;0;0.001;0;0;0;0.0001;2;2;0;0;76;0;0;46738964;0;0;0;0.0001;0.865;57.639;0;-0.06;0;0.004;0.004;1;46738964;0;0;0;0;0;0;0;0;0;46738000;37.34959441;-121.93070063;-3.78732300;0.00000000;0.00000000;3.94690156;3.43824315;
46739152;12.2;27.4;0;0;0;-72.4;-0.16;0;0;0;0;0.001;0;0;0;0.0001;2;2;0;0;76;0;0;46739081;0;0;0;0.0001;0.821;54.698;0;1.45;0;0.004;0.004;1;46739114;0;0;0;0;0;0;0;0;0;46738000;37.34959441;-121.93070063;-3.78732300;0.00000000;0.00000000;3.94690156;3.43824315;
46739218;12.3;27.5;0;0;0;-63.2;-0.28;0;0;0;0;0.001;0;0;0;0.0001;2;2;0;0;76;0;0;46739153;0;0;0;0.0001;0.932;62.105;0;0.46;0;0.004;0.004;1;46739114;0;0;0;0;0;0;0;0;0;46738000;37.34959441;-121.93070063;-3.78732300;0.00000000;0.00000000;3.94690156;3.43824315;
46739258;12.3;27.4;0;0;0;-67.6;-0.19;0;0;0;0;0;0;0;0;0.0001;2;2;0;0;76;0;0;46739219;0;0;0;0.0001;0.854;56.901;0;0.92;0;0.004;0.004;1;46739232;0;0;0;0;0;0;0;0;0;46738000;37.34959441;-121.93070063;-3.78732300;0.00000000;0.00000000;3.94690156;3.43824315;
46739328;12.3;27.4;0;0;0;-75.3;-0.35;0;0;0;0;0;0;0;0;0.0001;2;2;0;0;76;0;0;46739277;0;0;0;0.0001;0.91;60.609;0;0.63;0;0.004;0.004;1;46739232;0;0;0;0;0;0;0;0;0;46738000;37.34959441;-121.93070063;-3.78732300;0.00000000;0.00000000;3.94690156;3.43824315;
46739386;12.2;27.4;0;0;0;-63;-0.28;0;0;0;0;0;0;0;0;0.0001;2;2;0;0;76;0;0;46739353;0;0;0;0.0001;0.876;58.379;0;0.33;0;0.004;0.004;1;46739353;0;0;0;0;0;0;0;0;0;46738000;37.34959441;-121.93070063;-3.78732300;0.00000000;0.00000000;3.94690156;3.43824315;
46739454;12.1;27.5;0;0;0;-62.7;-0.18;0;0;0;0;0.001;0;0;0;0.0001;2;2;0;0;76;0;0;46739353;0;0;0;0.0001;0.876;58.379;0;0.33;0;0.004;0.004;1;46739353;0;0;0;0;0;0;0;0;0;46738000;37.34959441;-121.93070063;-3.78732300;0.00000000;0.00000000;3.94690156;3.43824315;
46739538;12.2;27.4;0;0;0;-73.8;-0.27;0;0;0;0;0.001;0;0;0;0.0001;2;2;0;0;76;0;0;46739455;0;0;0;0.0001;0.915;60.982;0;2;0;0.004;0.004;1;46739469;0;0;0;0;0;0;0;0;0;46738000;37.34959441;-121.93070063;-3.78732300;0.00000000;0.00000000;3.94690156;3.43824315;
46739657;12.3;27.3;0;0;0;-58.4;-0.36;0;0;0;0;0.001;0;0;0;0.0001;2;2;0;0;76;0;0;46739538;0;0;0;0.0001;0.865;57.639;0;-0.28;0;0.004;0.004;1;46739562;0;0;0;0;0;0;0;0;0;46738000;37.34959441;-121.93070063;-3.78732300;0.00000000;0.00000000;3.94690156;3.43824315;
46739768;12.2;27.4;0;0;0;-60.7;-0.3;0;0;0;0;0.001;0;0;0;0.0001;2;2;0;0;76;0;0;46739685;0;0;0;0.0001;0.898;59.864;0;-0.27;0;0.004;0.004;1;46739685;0;0;0;0;0;0;0;0;0;46739000;37.34959769;-121.93070043;-3.84130859;0.00000000;0.00000000;4.22574091;3.63641763;
46739858;12.2;27.3;0;0;0;-57.8;-0.33;0;0;0;0;0;0;0;0;0.0001;2;2;0;0;76;0;0;46739784;0;0;0;0.0001;0.904;60.236;0;-0.92;0;0.004;0.004;1;46739808;0;0;0;0;0;0;0;0;0;46739000;37.34959769;-121.93070043;-3.84130859;0.00000000;0.00000000;4.22574091;3.63641763;
46739963;12.2;27.4;0;0;0;-60.6;-0.2;0;0;0;0;0;0;0;0;0.0001;2;2;0;0;76;0;0;46739869;0;0;0;0.0001;0.887;59.121;0;1.16;0;0.004;0.004;1;46739904;0;0;0;0;0;0;0;0;0;46739000;37.34959769;-121.93070043;-3.84130859;0.00000000;0.00000000;4.22574091;3.63641763;
46740041;12.3;27.5;0;0;0;-61.5;-0.34;0;0;0;0;0.001;0;0;0;0.0001;2;2;0;0;76;0;0;46739978;0;0;0;0.0001;0.887;59.121;0;1.04;0;0.004;0.004;1;46740019;0;0;0;0;0;0;0;0;0;46739000;37.34959769;-121.93070043;-3.84130859;0.00000000;0.00000000;4.22574091;3.63641763;
46740109;12.3;27.4;0;0;0;-59.2;-0.34;0;0;0;0;0.001;0;0;0;0.0001;2;2;0;0;76;0;0;46740043;0;0;0;0.0001;0.871;58.009;0;-0.52;0;0.004;0.004;1;46740019;0;0;0;0;0;0;0;0;0;46739000;37.34959769;-121.93070043;-3.84130859;0.00000000;0.00000000;4.22574091;3.63641763;
46740158;12.2;27.4;0;0;0;-58.8;-0.43;0;0;0;0;0;0;0;0;0.0001;2;2;0;0;76;0;0;46740043;0;0;0;0.0001;0.871;58.009;0;-0.52;0;0.004;0.004;1;46740109;0;0;0;0;0;0;0;0;0;46739000;37.34959769;-121.93070043;-3.84130859;0.00000000;0.00000000;4.22574091;3.63641763;
46740220;12.1;27.3;0;0;0;-57.9;-0.39;0;0;0;0;0;0;0;0;0.0001;2;2;0;0;76;0;0;46740160;0;0;0;0.0001;0.876;58.379;0;0.59;0;0.004;0.004;1;46740190;0;0;0;0;0;0;0;0;0;46739000;37.34959769;-121.93070043;-3.84130859;0.00000000;0.00000000;4.22574091;3.63641763;
46740289;12.3;27.3;0;0;0;-59.2;-0.39;0;0;0;0;0.001;0;0;0;0.0001;2;2;0;0;76;0;0;46740257;0;0;0;0.0001;0.926;61.73;0;-0.27;0;0.004;0.004;1;46740288;0;0;0;0;0;0;0;0;0;46739000;37.34959769;-121.93070043;-3.84130859;0.00000000;0.00000000;4.22574091;3.63641763;
46740337;12.1;27.3;0;0;0;-58.7;-0.39;0;0;0;0;0.001;0;0;0;0.0001;2;2;0;0;76;0;0;46740257;0;0;0;0.0001;0.926;61.73;0;-0.27;0;0.004;0.004;1;46740288;0;0;0;0;0;0;0;0;0;46739000;37.34959769;-121.93070043;-3.84130859;0.00000000;0.00000000;4.22574091;3.63641763;
46740440;12.1;27.4;0;0;0;-59.4;-0.24;0;0;0;0;0.001;0;0;0;0.0001;2;2;0;0;76;0;0;46740357;0;0;0;0.0001;0.926;61.73;0;-0.77;0;0.004;0.004;1;46740372;0;0;0;0;0;0;0;0;0;46739000;37.34959769;-121.93070043;-3.84130859;0.00000000;0.00000000;4.22574091;3.63641763;
46740492;12.2;27.3;0;0;0;-58.8;-0.4;0;0;0;0;0;0;0;0;0.0001;2;2;0;0;76;0;0;46740456;0;0;0;0.0001;0.843;56.165;0;0.1;0;0.004;0.004;1;46740473;0;0;0;0;0;0;0;0;0;46739000;37.34959769;-121.93070043;-3.84130859;0.00000000;0.00000000;4.22574091;3.63641763;
46740556;12.3;27.5;0;0;0;-62.1;-0.16;0;0;0;0;0;0;0;0;0.0001;2;2;0;0;76;0;0;46740456;0;0;0;0.0001;0.843;56.165;0;0.1;0;0.004;0.004;1;46740473;0;0;0;0;0;0;0;0;0;46739000;37.34959769;-121.93070043;-3.84130859;0.00000000;0.00000000;4.22574091;3.63641763;
46740646;12.1;27.3;0;0;0;-59.2;-0.35;0;0;0;0;0;0;0;0;0.0001;2;2;0;0;76;0;0;46740557;0;0;0;0.0001;0.898;59.864;0;1.14;0;0.004;0.004;1;46740591;0;0;0;0;0;0;0;0;0;46739000;37.34959769;-121.93070043;-3.84130859;0.00000000;0.00000000;4.22574091;3.63641763;
46740707;12.4;27.4;0;0;0;-61.4;-0.38;0;0;0;0;0.001;0;0;0;0.0001;2;2;0;0;76;0;0;46740671;0;0;0;0.0001;0.898;59.864;0;1.51;0;0.004;0.004;1;46740671;0;0;0;0;0;0;0;0;0;46739000;37.34959769;-121.93070043;-3.84130859;0.00000000;0.00000000;4.22574091;3.63641763;
46740794;12.2;27.5;0;0;0;-84.4;-0.39;0;0;0;0;0.001;0;0;0;0.0001;2;2;0;0;76;0;0;46740742;0;0;0;0.0001;0.843;56.165;0;-0.76;0;0.004;0.004;1;46740743;0;0;0;0;0;0;0;0;0;46740000;37.34959402;-121.93069677;-3.99951172;0.00000000;0.00000000;4.30410910;3.60394025;
46740860;12.2;27.4;0;0;0;-66.7;-0.35;0;0;0;0;0.001;0;0;0;0.0001;2;2;0;0;76;0;0;46740794;0;0;0;0.0001;0.904;60.236;0;1.29;0;0.004;0.004;1;46740823;0;0;0;0;0;0;0;0;0;46740000;37.34959402;-121.93069677;-3.99951172;0.00000000;0.00000000;4.30410910;3.60394025;
46740940;12.3;27.4;0;0;0;-76.9;-0.31;0;0;0;0;0;0;0;0;0.0001;2;2;0;0;76;0;0;46740875;0;0;0;0.0001;0.887;59.121;0;0.61;0;0.004;0.004;1;46740891;0;0;0;0;0;0;0;0;0;46740000;37.34959402;-121.93069677;-3.99951172;0.00000000;0.00000000;4.30410910;3.60394025;
46740998;12.2;27.5;0;0;0;-64.9;-0.32;0;0;0;0;0.001;0;0;0;0.0001;2;2;0;0;76;0;0;46740941;0;0;0;0.0001;0.921;61.356;0;0.3;0;0.004;0.004;1;46740974;0;0;0;0;0;0;0;0;0;46740000;37.34959402;-121.93069677;-3.99951172;0.00000000;0.00000000;4.30410910;3.60394025;
46741092;12.2;27.8;0;0;0;-94.4;-0.37;0;0;0;0;0.001;0;0;0;0.0001;2;2;0;0;76;0;0;46741016;0;0;0;0.0001;0.893;59.492;0;0.9;0;0.004;0.004;1;46741062;0;0;0;0;0;0;0;0;0;46740000;37.34959402;-121.93069677;-3.99951172;0.00000000;0.00000000;4.30410910;3.60394025;
46741179;12.3;27.4;0;0;0;-68.9;-0.33;0;0;0;0;0;0;0;0;0.0001;2;2;0;0;76;0;0;46741122;0;0;0;0.0001;0.848;56.533;0;-0.61;0;0.004;0.004;1;46741122;0;0;0;0;0;0;0;0;0;46740000;37.34959402;-121.93069677;-3.99951172;0.00000000;0.00000000;4.30410910;3.60394025;
46741280;12.2;27.6;0;0;0;-84;-0.21;0;0;0;0;0.001;0;0;0;0.0001;2;2;0;0;76;0;0;46741181;0;0;0;0.0001;0.893;59.492;0;-0.4;0;0.004;0.004;1;46741211;0;0;0;0;0;0;0;0;0;46740000;37.34959402;-121.93069677;-3.99951172;0.00000000;0.00000000;4.30410910;3.60394025;
46741340;12.1;27.4;0;0;0;-64.5;-0.35;0;0;0;0;0.001;0;0;0;0.0001;2;2;0;0;76;0;0;46741304;0;0;0;0.0001;0.848;56.533;0;-1.61;0;0.004;0.004;1;46741304;0;0;0;0;0;0;0;0;0;46740000;37.34959402;-121.93069677;-3.99951172;0.00000000;0.00000000;4.30410910;3.60394025;
46741425;12.2;27.5;0;0;0;-88.5;-0.25;0;0;0;0;0.001;0;0;0;0.0001;2;2;0;0;76;0;0;46741398;0;0;0;0.0001;0.893;59.492;0;1.27;0;0.004;0.004;1;46741398;0;0;0;0;0;0;0;0;0;46740000;37.34959402;-121.93069677;-3.99951172;0.00000000;0.00000000;4.30410910;3.60394025;
46741497;12.3;27.6;0;0;0;-88.7;-0.31;0;0;0;0;0;0;0;0;0.0001;2;2;0;0;76;0;0;46741398;0;0;0;0.0001;0.893;59.492;0;1.27;0;0.004;0.004;1;46741398;0;0;0;0;0;0;0;0;0;46740000;37.34959402;-121.93069677;-3.99951172;0.00000000;0.00000000;4.30410910;3.60394025;
46741576;12.2;27.5;0;0;0;-66.8;-0.3;0;0;0;0;0.001;0;0;0;0.0001;2;2;0;0;76;0;0;46741498;0;0;0;0.0001;0.843;56.165;0;1.3;0;0.004;0.004;1;46741513;0;0;0;0;0;0;0;0;0;46740000;37.34959402;-121.93069677;-3.99951172;0.00000000;0.00000000;4.30410910;3.60394025;
46741628;12.2;27.6;0;0;0;-90;-0.16;0;0;0;0;0;0;0;0;0.0001;2;2;0;0;76;0;0;46741577;0;0;0;0.0001;0.865;57.639;0;0.49;0;0.004;0.004;1;46741610;0;0;0;0;0;0;0;0;0;46740000;37.34959402;-121.93069677;-3.99951172;0.00000000;0.00000000;4.30410910;3.60394025;
46741694;12.3;27.4;0;0;0;-69;-0.24;0;0;0;0;0.001;0;0;0;0.0001;2;2;0;0;76;0;0;46741660;0;0;0;0.0001;0.837;55.798;0;-1.76;0;0.004;0.004;1;46741610;0;0;0;0;0;0;0;0;0;46740000;37.34959402;-121.93069677;-3.99951172;0.00000000;0.00000000;4.30410910;3.60394025;
46741777;12.2;27.4;0;0;0;-59.2;-0.38;0;0;0;0;0;0;0;0;0.0001;2;2;0;0;76;0;0;46741660;0;0;0;0.0001;0.837;55.798;0;-1.76;0;0.004;0.004;1;46741694;0;0;0;0;0;0;0;0;0;46741000;37.34959552;-121.93069588;-4.79254150;0.00000000;0.00000000;4.26167059;3.45602846;
46741842;12.3;27.3;0;0;0;-57.9;-0.33;0;0;0;0;0.001;0;0;0;0.0001;2;2;0;0;76;0;0;46741794;0;0;0;0.0001;0.915;60.982;0;0.92;0;0.004;0.004;1;46741808;0;0;0;0;0;0;0;0;0;46741000;37.34959552;-121.93069588;-4.79254150;0.00000000;0.00000000;4.26167059;3.45602846;
46741908;12.3;27.3;0;0;0;-58.4;-0.4;0;0;0;0;0;0;0;0;0.0001;2;2;0;0;76;0;0;46741842;0;0;0;0.0001;0.837;55.798;0;0.57;0;0.004;0.004;1;46741808;0;0;0;0;0;0;0;0;0;46741000;37.34959552;-121.93069588;-4.79254150;0.00000000;0.00000000;4.26167059;3.45602846;
46741980;12.2;27.4;0;0;0;-60.3;-0.3;0;0;0;0;0.001;0;0;0;0.0001;2;2;0;0;76;0;0;46741908;0;0;0;0.0001;0.904;60.236;0;0.99;0;0.004;0.004;1;46741946;0;0;0;0;0;0;0;0;0;46741000;37.34959552;-121.93069588;-4.79254150;0.00000000;0.00000000;4.26167059;3.45602846;
46742028;12.4;27.4;0;0;0;-62.5;-0.27;0;0;0;0;0;0;0;0;0.0001;2;2;0;0;76;0;0;46742015;0;0;0;0.0001;0.893;59.492;0;-0.3;0;0.004;0.004;1;46741946;0;0;0;0;0;0;0;0;0;46741000;37.34959552;-121.93069588;-4.79254150;0.00000000;0.00000000;4.26167059;3.45602846;
46742109;12.2;27.5;0;0;0;-63.7;-0.36;0;0;0;0;0;0;0;0;0.0001;2;2;0;0;76;0;0;46742015;0;0;0;0.0001;0.893;59.492;0;-0.3;0;0.004;0.004;1;46742081;0;0;0;0;0;0;0;0;0;46741000;37.34959552;-121.93069588;-4.79254150;0.00000000;0.00000000;4.26167059;3.45602846;
46742212;12.3;27.4;0;0;0;-58.5;-0.32;0;0;0;0;0.001;0;0;0;0.0001;2;2;0;0;76;0;0;46742143;0;0;0;0.0001;0.882;58.749;0;-1.59;0;0.004;0.004;1;46742143;0;0;0;0;0;0;0;0;0;46741000;37.34959552;-121.93069588;-4.79254150;0.00000000;0.00000000;4.26167059;3.45602846;
46742295;12.2;27.3;0;0;0;-58.3;-0.42;0;0;0;0;0.001;0;0;0;0.0001;2;2;0;0;76;0;0;46742212;0;0;0;0.0001;0.915;60.982;0;-0.4;0;0.004;0.004;1;46742268;0;0;0;0;0;0;0;0;0;46741000;37.34959552;-121.93069588;-4.79254150;0.00000000;0.00000000;4.26167059;3.45602846;
46742380;12.2;27.4;0;0;0;-80.2;-0.2;0;0;0;0;0.001;0;0;0;0.0001;2;2;0;0;76;0;0;46742331;0;0;0;0.0001;0.882;58.749;0;0.9;0;0.004;0.004;1;46742268;0;0;0;0;0;0;0;0;0;46741000;37.34959552;-121.93069588;-4.79254150;0.00000000;0.00000000;4.26167059;3.45602846;
46742446;12.2;27.4;0;0;0;-60;-0.36;0;0;0;0;0.001;0;0;0;0.0001;2;2;0;0;76;0;0;46742415;0;0;0;0.0001;0.955;63.608;0;-0.31;0;0.004;0.004;1;46742414;0;0;0;0;0;0;0;0;0;46741000;37.34959552;-121.93069588;-4.79254150;0.00000000;0.00000000;4.26167059;3.45602846;
46742514;12.1;27.3;0;0;0;-58.6;-0.23;0;0;0;0;0;0;0;0;0.0001;2;2;0;0;76;0;0;46742415;0;0;0;0.0001;0.955;63.608;0;-0.31;0;0.004;0.004;1;46742414;0;0;0;0;0;0;0;0;0;46741000;37.34959552;-121.93069588;-4.79254150;0.00000000;0.00000000;4.26167059;3.45602846;
46742616;12.1;27.3;0;0;0;-57.2;-0.37;0;0;0;0;0.001;0;0;0;0.0001;2;2;0;0;76;0;0;46742514;0;0;0;0.0001;0.915;60.982;0;1.13;0;0.004;0.004;1;46742530;0;0;0;0;0;0;0;0;0;46741000;37.34959552;-121.93069588;-4.79254150;0.00000000;0.00000000;4.26167059;3.45602846;
46742711;12.3;27.3;0;0;0;-58.7;-0.3;0;0;0;0;0.001;0;0;0;0.0001;2;2;0;0;76;0;0;46742630;0;0;0;0.0001;0.876;58.379;0;1.29;0;0.004;0.004;1;46742679;0;0;0;0;0;0;0;0;0;46741000;37.34959552;-121.93069588;-4.79254150;0.00000000;0.00000000;4.26167059;3.45602846;
46742782;12.4;27.4;0;0;0;-59.7;-0.35;0;0;0;0;0;0;0;0;0.0001;2;2;0;0;76;0;0;46742744;0;0;0;0.0001;0.832;55.431;0;-1.64;0;0.004;0.004;1;46742744;0;0;0;0;0;0;0;0;0;46742000;37.34959624;-121.93069430;-4.89859009;0.00000000;0.00000000;4.27021885;3.42739415;
46742838;12.2;27.4;0;0;0;-58.7;-0.17;0;0;0;0;0;0;0;0;0.0001;2;2;0;0;76;0;0;46742744;0;0;0;0.0001;0.832;55.431;0;-1.64;0;0.004;0.004;1;46742744;0;0;0;0;0;0;0;0;0;46742000;37.34959624;-121.93069430;-4.89859009;0.00000000;0.00000000;4.27021885;3.42739415;
46742898;12.1;27.3;0;0;0;-57.5;-0.42;0;0;0;0;0.001;0;0;0;0.0001;2;2;0;0;76;0;0;46742839;0;0;0;0.0001;0.882;58.749;0;-0.09;0;0.004;0.004;1;46742898;0;0;0;0;0;0;0;0;0;46742000;37.34959624;-121.93069430;-4.89859009;0.00000000;0.00000000;4.27021885;3.42739415;
46742981;12.1;27.4;0;0;0;-58.7;-0.37;0;0;0;0;0.001;0;0;0;0.0001;2;2;0;0;76;0;0;46742931;0;0;0;0.0001;0.854;56.901;0;0.98;0;0.004;0.004;1;46742898;0;0;0;0;0;0;0;0;0;46742000;37.34959624;-121.93069430;-4.89859009;0.00000000;0.00000000;4.27021885;3.42739415;
46743048;12.1;27.4;0;0;0;-58.9;-0.15;0;0;0;0;0;0;0;0;0.0001;2;2;0;0;76;0;0;46742981;0;0;0;0.0001;0.898;59.864;0;1.56;0;0.004;0.004;1;46743014;0;0;0;0;0;0;0;0;0;46742000;37.34959624;-121.93069430;-4.89859009;0.00000000;0.00000000;4.27021885;3.42739415;
46743130;12.2;27.4;0;0;0;-58.5;-0.38;0;0;0;0;0;0;0;0;0.0001;2;2;0;0;76;0;0;46743080;0;0;0;0.0001;0.921;61.356;0;0.69;0;0.004;0.004;1;46743080;0;0;0;0;0;0;0;0;0;46742000;37.34959624;-121.93069430;-4.89859009;0.00000000;0.00000000;4.27021885;3.42739415;
46743199;12.1;27.3;0;0;0;-58;-0.24;0;0;0;0;0.001;0;0;0;0.0001;2;2;0;0;76;0;0;46743131;0;0;0;0.0001;0.915;60.982;0;0.62;0;0.004;0.004;1;46743164;0;0;0;0;0;0;0;0;0;46742000;37.34959624;-121.93069430;-4.89859009;0.00000000;0.00000000;4.27021885;3.42739415;
46743282;12.1;27.3;0;0;0;-57.3;-0.23;0;0;0;0;0;0;0;0;0.0001;2;2;0;0;76;0;0;46743214;0;0;0;0.0001;0.859;57.27;0;-0.16;0;0.004;0.004;1;46743231;0;0;0;0;0;0;0;0;0;46742000;37.34959624;-121.93069430;-4.89859009;0.00000000;0.00000000;4.27021885;3.42739415;
46743349;12.1;27.4;0;0;0;-58.7;-0.43;0;0;0;0;0.001;0;0;0;0.0001;2;2;0;0;76;0;0;46743282;0;0;0;0.0001;0.882;58.749;0;0.86;0;0.004;0.004;1;46743315;0;0;0;0;0;0;0;0;0;46742000;37.34959624;-121.93069430;-4.89859009;0.00000000;0.00000000;4.27021885;3.42739415;
46743466;12.2;27.3;0;0;0;-57.5;-0.33;0;0;0;0;0;0;0;0;0.0001;2;2;0;0;76;0;0;46743365;0;0;0;0.0001;0.932;62.105;0;1.78;0;0.004;0.004;1;46743399;0;0;0;0;0;0;0;0;0;46742000;37.34959624;-121.93069430;-4.89859009;0.00000000;0.00000000;4.27021885;3.42739415;
46743518;12.2;27.4;0;0;0;-61.2;-0.29;0;0;0;0;0.001;0;0;0;0.0001;2;2;0;0;76;0;0;46743499;0;0;0;0.0001;0.91;60.609;0;1.14;0;0.004;0.004;1;46743499;0;0;0;0;0;0;0;0;0;46742000;37.34959624;-121.93069430;-4.89859009;0.00000000;0.00000000;4.27021885;3.42739415;
46743587;12.2;27.5;0;0;0;-62.2;-0.19;0;0;0;0;0.001;0;0;0;0.0001;2;2;0;0;76;0;0;46743499;0;0;0;0.0001;0.91;60.609;0;1.14;0;0.004;0.004;1;46743499;0;0;0;0;0;0;0;0;0;46742000;37.34959624;-121.93069430;-4.89859009;0.00000000;0.00000000;4.27021885;3.42739415;
46743649;12.1;27.3;0;0;0;-58.4;-0.29;0;0;0;0;0.001;0;0;0;0.0001;2;2;0;0;76;0;0;46743587;0;0;0;0.0001;0.932;62.105;0;1.41;0;0.004;0.004;1;46743618;0;0;0;0;0;0;0;0;0;46742000;37.34959624;-121.93069430;-4.89859009;0.00000000;0.00000000;4.27021885;3.42739415;
46743737;12.1;27.4;0;0;0;-59.8;-0.27;0;0;0;0;0.001;0;0;0;0.0001;2;2;0;0;76;0;0;46743669;0;0;0;0.0001;0.91;60.609;0;0.74;0;0.004;0.004;1;46743669;0;0;0;0;0;0;0;0;0;46742000;37.34959624;-121.93069430;-4.89859009;0.00000000;0.00000000;4.27021885;3.42739415;
46743802;12.2;27.8;0;0;0;-92;-0.28;0;0;0;0;0.001;0;0;0;0.0001;2;2;0;0;76;0;0;46743770;0;0;0;0.0001;0.915;60.982;0;-0.27;0;0.004;0.004;1;46743770;0;0;0;0;0;0;0;0;0;46743000;37.34960146;-121.93069637;-4.86718750;0.00000000;0.00000000;4.37116861;3.56183290;
46743888;12.3;27.5;0;0;0;-65.6;-0.41;0;0;0;0;0;0;0;0;0.0001;2;2;0;0;76;0;0;46743854;0;0;0;0.0001;0.887;59.121;0;-1.44;0;0.004;0.004;1;46743854;0;0;0;0;0;0;0;0;0;46743000;37.34960146;-121.93069637;-4.86718750;0.00000000;0.00000000;4.37116861;3.56183290;
46743952;12.3;27.6;0;0;0;-69.2;-0.23;0;0;0;0;0;0;0;0;0.0001;2;2;0;0;76;0;0;46743854;0;0;0;0.0001;0.887;59.121;0;-1.44;0;0.004;0.004;1;46743854;0;0;0;0;0;0;0;0;0;46743000;37.34960146;-121.93069637;-4.86718750;0.00000000;0.00000000;4.37116861;3.56183290;
46744036;12.2;27.4;0;0;0;-61.3;-0.24;0;0;0;0;0;0;0;0;0.0001;2;2;0;0;76;0;0;46743953;0;0;0;0.0001;0.893;59.492;0;1.97;0;0.004;0.004;1;46743968;0;0;0;0;0;0;0;0;0;46743000;37.34960146;-121.93069637;-4.86718750;0.00000000;0.00000000;4.37116861;3.56183290;
46744093;12.1;27.5;0;0;0;-63.2;-0.45;0;0;0;0;0;0;0;0;0.0001;2;2;0;0;76;0;0;46744036;0;0;0;0.0001;0.876;58.379;0;1.27;0;0.004;0.004;1;46744072;0;0;0;0;0;0;0;0;0;46743000;37.34960146;-121.93069637;-4.86718750;0.00000000;0.00000000;4.37116861;3.56183290;
46744151;12.4;27.4;0;0;0;-65.3;-0.18;0;0;0;0;0.001;0;0;0;0.0001;2;2;0;0;76;0;0;46744093;0;0;0;0.0001;0.876;58.379;0;-1.11;0;0.004;0.004;1;46744072;0;0;0;0;0;0;0;0;0;46743000;37.34960146;-121.93069637;-4.86718750;0.00000000;0.00000000;4.37116861;3.56183290;
46744216;12.1;27.5;0;0;0;-80.6;-0.41;0;0;0;0;0;0;0;0;0.0001;2;2;0;0;76;0;0;46744151;0;0;0;0.0001;0.865;57.639;0;-0.27;0;0.004;0.004;1;46744215;0;0;0;0;0;0;0;0;0;46743000;37.34960146;-121.93069637;-4.86718750;0.00000000;0.00000000;4.37116861;3.56183290;
46744302;12.2;27.4;0;0;0;-94.2;-0.41;0;0;0;0;0.001;0;0;0;0.0001;2;2;0;0;76;0;0;46744243;0;0;0;0.0001;0.859;57.27;0;0.16;0;0.004;0.004;1;46744215;0;0;0;0;0;0;0;0;0;46743000;37.34960146;-121.93069637;-4.86718750;0.00000000;0.00000000;4.37116861;3.56183290;
46744389;12.1;27.4;0;0;0;-62.6;-0.29;0;0;0;0;0.001;0;0;0;0.0001;2;2;0;0;76;0;0;46744369;0;0;0;0.0001;0.848;56.533;0;-0.68;0;0.004;0.004;1;46744336;0;0;0;0;0;0;0;0;0;46743000;37.34960146;-121.93069637;-4.86718750;0.00000000;0.00000000;4.37116861;3.56183290;
46744477;12.3;27.6;0;0;0;-102.7;-0.23;0;0;0;0;0.001;0;0;0;0.0001;2;2;0;0;76;0;0;46744420;0;0;0;0.0001;0.859;57.27;0;-0.07;0;0.004;0.004;1;46744421;0;0;0;0;0;0;0;0;0;46743000;37.34960146;-121.93069637;-4.86718750;0.00000000;0.00000000;4.37116861;3.56183290;
46744573;12.3;27.6;0;0;0;-98.6;-0.26;0;0;0;0;0.001;0;0;0;0.0001;2;2;0;0;76;0;0;46744495;0;0;0;0.0001;0.921;61.356;0;0.08;0;0.004;0.004;1;46744537;0;0;0;0;0;0;0;0;0;46743000;37.34960146;-121.93069637;-4.86718750;0.00000000;0.00000000;4.37116861;3.56183290;
46744630;12.4;27.6;0;0;0;-90.9;-0.33;0;0;0;0;0.001;0;0;0;0.0001;2;2;0;0;76;0;0;46744574;0;0;0;0.0001;0.837;55.798;0;-0.65;0;0.004;0.004;1;46744537;0;0;0;0;0;0;0;0;0;46743000;37.34960146;-121.93069637;-4.86718750;0.00000000;0.00000000;4.37116861;3.56183290;
46744694;12.3;27.4;0;0;0;-60.4;-0.36;0;0;0;0;0;0;0;0;0.0001;2;2;0;0;76;0;0;46744632;0;0;0;0.0001;0.854;56.901;0;-1.58;0;0.004;0.004;1;46744667;0;0;0;0;0;0;0;0;0;46743000;37.34960146;-121.93069637;-4.86718750;0.00000000;0.00000000;4.37116861;3.56183290;
46744753;12.2;27.5;0;0;0;-64.6;-0.15;0;0;0;0;0.001;0;0;0;0.0001;2;2;0;0;76;0;0;46744727;0;0;0;0.0001;0.949;63.232;0;0.81;0;0.004;0.004;1;46744727;0;0;0;0;0;0;0;0;0;46744000;37.34959843;-121.93069670;-4.95834351;0.00000000;0.00000000;4.09313774;3.63451028;
46744843;12.3;27.5;0;0;0;-85.5;-0.27;0;0;0;0;0.001;0;0;0;0.0001;2;2;0;0;76;0;0;46744788;0;0;0;0.0001;0.859;57.27;0;-0.16;0;0.004;0.004;1;46744788;0;0;0;0;0;0;0;0;0;46744000;37.34959843;-121.93069670;-4.95834351;0.00000000;0.00000000;4.09313774;3.63451028;
46744906;12.2;27.5;0;0;0;-85.2;-0.15;0;0;0;0;0.001;0;0;0;0.0001;2;2;0;0;76;0;0;46744844;0;0;0;0.0001;0.882;58.749;0;2.28;0;0.004;0.004;1;46744873;0;0;0;0;0;0;0;0;0;46744000;37.34959843;-121.93069670;-4.95834351;0.00000000;0.00000000;4.09313774;3.63451028;
46744993;12.1;27.3;0;0;0;-58;-0.26;0;0;0;0;0.001;0;0;0;0.0001;2;2;0;0;76;0;0;46744941;0;0;0;0.0001;0.932;62.105;0;-0.98;0;0.004;0.004;1;46744941;0;0;0;0;0;0;0;0;0;46744000;37.34959843;-121.93069670;-4.95834351;0.00000000;0.00000000;4.09313774;3.63451028;
46745058;12.1;27.3;0;0;0;-59.9;-0.11;0;0;0;0;0.001;0;0;0;0.0001;2;2;0;0;76;0;0;46744994;0;0;0;0.0001;0.843;56.165;0;0.07;0;0.004;0.004;1;46745022;0;0;0;0;0;0;0;0;0;46744000;37.34959843;-121.93069670;-4.95834351;0.00000000;0.00000000;4.09313774;3.63451028;
46745140;12.3;27.4;0;0;0;-59.4;-0.38;0;0;0;0;0;0;0;0;0.0001;2;2;0;0;76;0;0;46745076;0;0;0;0.0001;0.859;57.27;0;1.82;0;0.004;0.004;1;46745086;0;0;0;0;0;0;0;0;0;46744000;37.34959843;-121.93069670;-4.95834351;0.00000000;0.00000000;4.09313774;3.63451028;
46745240;12.3;27.4;0;0;0;-60.3;-0.27;0;0;0;0;0.001;0;0;0;0.0001;2;2;0;0;76;0;0;46745170;0;0;0;0.0001;0.865;57.639;0;0.69;0;0.004;0.004;1;46745170;0;0;0;0;0;0;0;0;0;46744000;37.34959843;-121.93069670;-4.95834351;0.00000000;0.00000000;4.09313774;3.63451028;
46745323;12.2;27.3;0;0;0;-58.1;-0.29;0;0;0;0;0.001;0;0;0;0.0001;2;2;0;0;76;0;0;46745241;0;0;0;0.0001;0.871;58.009;0;0.8;0;0.004;0.004;1;46745273;0;0;0;0;0;0;0;0;0;46744000;37.34959843;-121.93069670;-4.95834351;0.00000000;0.00000000;4.09313774;3.63451028;
46745390;12.2;27.4;0;0;0;-59;-0.19;0;0;0;0;0;0;0;0;0.0001;2;2;0;0;76;0;0;46745324;0;0;0;0.0001;0.943;62.856;0;-0.04;0;0.004;0.004;1;46745356;0;0;0;0;0;0;0;0;0;46744000;37.34959843;-121.93069670;-4.95834351;0.00000000;0.00000000;4.09313774;3.63451028;
46745456;12.3;27.5;0;0;0;-61.6;-0.26;0;0;0;0;0.001;0;0;0;0.0001;2;2;0;0;76;0;0;46745390;0;0;0;0.0001;0.938;62.48;0;-0.3;0;0.004;0.004;1;46745356;0;0;0;0;0;0;0;0;0;46744000;37.34959843;-121.93069670;-4.95834351;0.00000000;0.00000000;4.09313774;3.63451028;
46745495;12.3;27.4;0;0;0;-60.8;-0.39;0;0;0;0;0.001;0;0;0;0.0001;2;2;0;0;76;0;0;46745457;0;0;0;0.0001;0.904;60.236;0;-1.24;0;0.004;0.004;1;46745472;0;0;0;0;0;0;0;0;0;46744000;37.34959843;-121.93069670;-4.95834351;0.00000000;0.00000000;4.09313774;3.63451028;
46745624;12.3;27.4;0;0;0;-60.2;-0.23;0;0;0;0;0.001;0;0;0;0.0001;2;2;0;0;76;0;0;46745522;0;0;0;0.0001;0.898;59.864;0;1.56;0;0.004;0.004;1;46745472;0;0;0;0;0;0;0;0;0;46744000;37.34959843;-121.93069670;-4.95834351;0.00000000;0.00000000;4.09313774;3.63451028;
46745679;12.4;27.4;0;0;0;-60.6;-0.34;0;0;0;0;0.001;0;0;0;0.0001;2;2;0;0;76;0;0;46745625;0;0;0;0.0001;0.865;57.639;0;-1.36;0;0.004;0.004;1;46745658;0;0;0;0;0;0;0;0;0;46744000;37.34959843;-121.93069670;-4.95834351;0.00000000;0.00000000;4.09313774;3.63451028;
46745741;12.1;27.4;0;0;0;-61.6;-0.36;0;0;0;0;0;0;0;0;0.0001;2;2;0;0;76;0;0;46745692;0;0;0;0.0001;0.837;55.798;0;0.08;0;0.004;0.004;1;46745658;0;0;0;0;0;0;0;0;0;46744000;37.34959843;-121.93069670;-4.95834351;0.00000000;0.00000000;4.09313774;3.63451028;
46745808;12.1;27.4;0;0;0;-60.8;-0.11;0;0;0;0;0.001;0;0;0;0.0001;2;2;0;0;76;0;0;46745776;0;0;0;0.0001;0.898;59.864;0;0.28;0;0.004;0.004;1;46745775;0;0;0;0;0;0;0;0;0;46745000;37.34959909;-121.93069113;-5.22927856;0.00000000;0.00000000;4.06147623;3.82054019;
46745858;12.2;27.4;0;0;0;-59.6;-0.36;0;0;0;0;0.001;0;0;0;0.0001;2;2;0;0;76;0;0;46745776;0;0;0;0.0001;0.898;59.864;0;0.28;0;0.004;0.004;1;46745775;0;0;0;0;0;0;0;0;0;46745000;37.34959909;-121.93069113;-5.22927856;0.00000000;0.00000000;4.06147623;3.82054019;
46745925;12.3;27.5;0;0;0;-61;-0.41;0;0;0;0;0;0;0;0;0.0001;2;2;0;0;76;0;0;46745876;0;0;0;0.0001;0.932;62.105;0;-0.06;0;0.004;0.004;1;46745892;0;0;0;0;0;0;0;0;0;46745000;37.34959909;-121.93069113;-5.22927856;0.00000000;0.00000000;4.06147623;3.82054019;
46746010;12.3;27.5;0;0;0;-62.3;-0.31;0;0;0;0;0.001;0;0;0;0.0001;2;2;0;0;76;0;0;46745965;0;0;0;0.0001;0.854;56.901;0;-1;0;0.004;0.004;1;46745965;0;0;0;0;0;0;0;0;0;46745000;37.34959909;-121.93069113;-5.22927856;0.00000000;0.00000000;4.06147623;3.82054019;
46746076;12.1;27.3;0;0;0;-57;-0.35;0;0;0;0;0;0;0;0;0.0001;2;2;0;0;76;0;0;46746011;0;0;0;0.0001;0.843;56.165;0;2.29;0;0.004;0.004;1;46746045;0;0;0;0;0;0;0;0;0;46745000;37.34959909;-121.93069113;-5.22927856;0.00000000;0.00000000;4.06147623;3.82054019;
46746160;12.2;27.3;0;0;0;-61.2;-0.21;0;0;0;0;0.001;0;0;0;0.0001;2;2;0;0;76;0;0;46746109;0;0;0;0.0001;0.938;62.48;0;1.37;0;0.004;0.004;1;46746109;0;0;0;0;0;0;0;0;0;46745000;37.34959909;-121.93069113;-5.22927856;0.00000000;0.00000000;4.06147623;3.82054019;
46746229;12.1;27.3;0;0;0;-60.5;-0.44;0;0;0;0;0.001;0;0;0;0.0001;2;2;0;0;76;0;0;46746161;0;0;0;0.0001;0.865;57.639;0;0.69;0;0.004;0.004;1;46746195;0;0;0;0;0;0;0;0;0;46745000;37.34959909;-121.93069113;-5.22927856;0.00000000;0.00000000;4.06147623;3.82054019;
46746309;12.1;27.3;0;0;0;-57.9;-0.28;0;0;0;0;0;0;0;0;0.0001;2;2;0;0;76;0;0;46746277;0;0;0;0.0001;0.848;56.533;0;-0.57;0;0.004;0.004;1;46746297;0;0;0;0;0;0;0;0;0;46745000;37.34959909;-121.93069113;-5.22927856;0.00000000;0.00000000;4.06147623;3.82054019;
46746397;12.1;27.9;0;0;0;-82.4;-0.31;0;0;0;0;0;0;0;0;0.0001;2;2;0;0;76;0;0;46746347;0;0;0;0.0001;0.882;58.749;0;-0.21;0;0.004;0.004;1;46746347;0;0;0;0;0;0;0;0;0;46745000;37.34959909;-121.93069113;-5.22927856;0.00000000;0.00000000;4.06147623;3.82054019;
46746495;12.2;27.3;0;0;0;-58.1;-0.39;0;0;0;0;0.001;0;0;0;0.0001;2;2;0;0;76;0;0;46746415;0;0;0;0.0001;0.882;58.749;0;2.12;0;0.004;0.004;1;46746430;0;0;0;0;0;0;0;0;0;46745000;37.34959909;-121.93069113;-5.22927856;0.00000000;0.00000000;4.06147623;3.82054019;
46746558;12.1;27.4;0;0;0;-66.6;-0.36;0;0;0;0;0;0;0;0;0.0001;2;2;0;0;76;0;0;46746495;0;0;0;0.0001;0.915;60.982;0;-1.68;0;0.004;0.004;1;46746528;0;0;0;0;0;0;0;0;0;46745000;37.34959909;-121.93069113;-5.22927856;0.00000000;0.00000000;4.06147623;3.82054019;
46746606;12.2;27.4;0;0;0;-58.9;-0.36;0;0;0;0;0.001;0;0;0;0.0001;2;2;0;0;76;0;0;46746558;0;0;0;0.0001;0.921;61.356;0;1.64;0;0.004;0.004;1;46746528;0;0;0;0;0;0;0;0;0;46745000;37.34959909;-121.93069113;-5.22927856;0.00000000;0.00000000;4.06147623;3.82054019;
46746681;12.2;27.5;0;0;0;-63.5;-0.31;0;0;0;0;0.001;0;0;0;0.0001;2;2;0;0;76;0;0;46746618;0;0;0;0.0001;0.859;57.27;0;1.74;0;0.004;0.004;1;46746642;0;0;0;0;0;0;0;0;0;46745000;37.34959909;-121.93069113;-5.22927856;0.00000000;0.00000000;4.06147623;3.82054019;
46746737;12.4;27.3;0;0;0;-57.9;-0.35;0;0;0;0;0.001;0;0;0;0.0001;2;2;0;0;76;0;0;46746681;0;0;0;0.0001;0.871;58.009;0;0;0;0.004;0.004;1;46746642;0;0;0;0;0;0;0;0;0;46745000;37.34959909;-121.93069113;-5.22927856;0.00000000;0.00000000;4.06147623;3.82054019;
46746793;12.1;27.4;0;0;0;-59.1;-0.25;0;0;0;0;0;0;0;0;0.0001;2;2;0;0;76;0;0;46746738;0;0;0;0.0001;0.915;60.982;0;0.68;0;0.004;0.004;1;46746760;0;0;0;0;0;0;0;0;0;46746000;37.34960161;-121.93068602;-5.80468750;0.00000000;0.00000000;4.01482058;3.92366552;
46746880;12.2;27.3;0;0;0;-58.5;-0.34;0;0;0;0;0.001;0;0;0;0.0001;2;2;0;0;76;0;0;46746816;0;0;0;0.0001;0.876;58.379;0;1.03;0;0.004;0.004;1;46746830;0;0;0;0;0;0;0;0;0;46746000;37.34960161;-121.93068602;-5.80468750;0.00000000;0.00000000;4.01482058;3.92366552;
46746982;12.3;27.4;0;0;0;-60.1;-0.37;0;0;0;0;0.001;0;0;0;0.0001;2;2;0;0;76;0;0;46746912;0;0;0;0.0001;0.876;58.379;0;2.03;0;0.004;0.004;1;46746913;0;0;0;0;0;0;0;0;0;46746000;37.34960161;-121.93068602;-5.80468750;0.00000000;0.00000000;4.01482058;3.92366552;
46747062;12.4;27.4;0;0;0;-58.6;-0.34;0;0;0;0;0;0;0;0;0.0001;2;2;0;0;76;0;0;46746983;0;0;0;0.0001;0.865;57.639;0;1.2;0;0.004;0.004;1;46747011;0;0;0;0;0;0;0;0;0;46746000;37.34960161;-121.93068602;-5.80468750;0.00000000;0.00000000;4.01482058;3.92366552;
46747129;12.1;27.3;0;0;0;-57.6;-0.32;0;0;0;0;0.001;0;0;0;0.0001;2;2;0;0;76;0;0;46747062;0;0;0;0.0001;0.887;59.121;0;0.87;0;0.004;0.004;1;46747096;0;0;0;0;0;0;0;0;0;46746000;37.34960161;-121.93068602;-5.80468750;0.00000000;0.00000000;4.01482058;3.92366552;
46747212;12.2;27.4;0;0;0;-59.6;-0.3;0;0;0;0;0.001;0;0;0;0.0001;2;2;0;0;76;0;0;46747145;0;0;0;0.0001;0.837;55.798;0;-0.04;0;0.004;0.004;1;46747164;0;0;0;0;0;0;0;0;0;46746000;37.34960161;-121.93068602;-5.80468750;0.00000000;0.00000000;4.01482058;3.92366552;
46747286;12.2;27.3;0;0;0;-57.8;-0.26;0;0;0;0;0.001;0;0;0;0.0001;2;2;0;0;76;0;0;46747212;0;0;0;0.0001;0.876;58.379;0;-0.58;0;0.004;0.004;1;46747248;0;0;0;0;0;0;0;0;0;46746000;37.34960161;-121.93068602;-5.80468750;0.00000000;0.00000000;4.01482058;3.92366552;
46747363;12.4;27.4;0;0;0;-80.3;-0.43;0;0;0;0;0;0;0;0;0.0001;2;2;0;0;76;0;0;46747287;0;0;0;0.0001;0.932;62.105;0;1.37;0;0.004;0.004;1;46747248;0;0;0;0;0;0;0;0;0;46746000;37.34960161;-121.93068602;-5.80468750;0.00000000;0.00000000;4.01482058;3.92366552;
46747420;12.1;27.4;0;0;0;-58.9;-0.23;0;0;0;0;0;0;0;0;0.0001;2;2;0;0;76;0;0;46747363;0;0;0;0.0001;0.865;57.639;0;-1.17;0;0.004;0.004;1;46747400;0;0;0;0;0;0;0;0;0;46746000;37.34960161;-121.93068602;-5.80468750;0.00000000;0.00000000;4.01482058;3.92366552;
46747480;12.2;27.3;0;0;0;-57.7;-0.37;0;0;0;0;0.001;0;0;0;0.0001;2;2;0;0;76;0;0;46747422;0;0;0;0.0001;0.893;59.492;0;1.1;0;0.004;0.004;1;46747400;0;0;0;0;0;0;0;0;0;46746000;37.34960161;-121.93068602;-5.80468750;0.00000000;0.00000000;4.01482058;3.92366552;
46747567;12.3;27.5;0;0;0;-73;-0.41;0;0;0;0;0;0;0;0;0.0001;2;2;0;0;76;0;0;46747514;0;0;0;0.0001;0.843;56.165;0;-0.36;0;0.004;0.004;1;46747514;0;0;0;0;0;0;0;0;0;46746000;37.34960161;-121.93068602;-5.80468750;0.00000000;0.00000000;4.01482058;3.92366552;
46747668;12.1;27.4;0;0;0;-67.4;-0.36;0;0;0;0;0.001;0;0;0;0.0001;2;2;0;0;76;0;0;46747583;0;0;0;0.0001;0.865;57.639;0;0.8;0;0.004;0.004;1;46747598;0;0;0;0;0;0;0;0;0;46746000;37.34960161;-121.93068602;-5.80468750;0.00000000;0.00000000;4.01482058;3.92366552;
46747722;12.2;27.5;0;0;0;-69.5;-0.38;0;0;0;0;0.001;0;0;0;0.0001;2;2;0;0;76;0;0;46747668;0;0;0;0.0001;0.876;58.379;0;0.45;0;0.004;0.004;1;46747707;0;0;0;0;0;0;0;0;0;46746000;37.34960161;-121.93068602;-5.80468750;0.00000000;0.00000000;4.01482058;3.92366552;
46747782;12.1;27.4;0;0;0;-96.8;-0.36;0;0;0;0;0.001;0;0;0;0.0001;2;2;0;0;76;0;0;46747722;0;0;0;0.0001;0.926;61.73;0;0.4;0;0.004;0.004;1;46747707;0;0;0;0;0;0;0;0;0;46747000;37.34960041;-121.93067855;-6.14813232;0.00000000;0.00000000;3.96267343;3.98337722;
46747883;12.2;27.4;0;0;0;-63.7;-0.35;0;0;0;0;0;0;0;0;0.0001;2;2;0;0;76;0;0;46747782;0;0;0;0.0001;0.893;59.492;0;0.86;0;0.004;0.004;1;46747814;0;0;0;0;0;0;0;0;0;46747000;37.34960041;-121.93067855;-6.14813232;0.00000000;0.00000000;3.96267343;3.98337722;
46747967;12.2;27.4;0;0;0;-65.6;-0.31;0;0;0;0;0;0;0;0;0.0001;2;2;0;0;76;0;0;46747883;0;0;0;0.0001;0.921;61.356;0;1.83;0;0.004;0.004;1;46747900;0;0;0;0;0;0;0;0;0;46747000;37.34960041;-121.93067855;-6.14813232;0.00000000;0.00000000;3.96267343;3.98337722;
46748034;12.2;27.5;0;0;0;-77.9;-0.32;0;0;0;0;0;0;0;0;0.0001;2;2;0;0;76;0;0;46748001;0;0;0;0.0001;0.848;56.533;0;-1.79;0;0.004;0.004;1;46748001;0;0;0;0;0;0;0;0;0;46747000;37.34960041;-121.93067855;-6.14813232;0.00000000;0.00000000;3.96267343;3.98337722;
46748081;12.2;27.4;0;0;0;-60.5;-0.4;0;0;0;0;0.001;0;0;0;0.0001;2;2;0;0;76;0;0;46748001;0;0;0;0.0001;0.848;56.533;0;-1.79;0;0.004;0.004;1;46748001;0;0;0;0;0;0;0;0;0;46747000;37.34960041;-121.93067855;-6.14813232;0.00000000;0.00000000;3.96267343;3.98337722;
46748139;12.2;27.4;0;0;0;-65.8;-0.3;0;0;0;0;0.001;0;0;0;0.0001;2;2;0;0;76;0;0;46748081;0;0;0;0.0001;0.921;61.356;0;1.4;0;0.004;0.004;1;46748117;0;0;0;0;0;0;0;0;0;46747000;37.34960041;-121.93067855;-6.14813232;0.00000000;0.00000000;3.96267343;3.98337722;
46748200;12.1;27.4;0;0;0;-59.4;-0.37;0;0;0;0;0.001;0;0;0;0.0001;2;2;0;0;76;0;0;46748153;0;0;0;0.0001;0.926;61.73;0;1.09;0;0.004;0.004;1;46748117;0;0;0;0;0;0;0;0;0;46747000;37.34960041;-121.93067855;-6.14813232;0.00000000;0.00000000;3.96267343;3.98337722;
46748271;12.2;27.6;0;0;0;-91;-0.33;0;0;0;0;0.001;0;0;0;0.0001;2;2;0;0;76;0;0;46748233;0;0;0;0.0001;0.882;58.749;0;-0.62;0;0.004;0.004;1;46748233;0;0;0;0;0;0;0;0;0;46747000;37.34960041;-121.93067855;-6.14813232;0.00000000;0.00000000;3.96267343;3.98337722;
46748318;12.3;27.4;0;0;0;-80.3;-0.39;0;0;0;0;0.001;0;0;0;0.0001;2;2;0;0;76;0;0;46748233;0;0;0;0.0001;0.882;58.749;0;-0.62;0;0.004;0.004;1;46748233;0;0;0;0;0;0;0;0;0;46747000;37.34960041;-121.93067855;-6.14813232;0.00000000;0.00000000;3.96267343;3.98337722;
46748384;12.1;27.5;0;0;0;-81.5;-0.31;0;0;0;0;0.001;0;0;0;0.0001;2;2;0;0;76;0;0;46748334;0;0;0;0.0001;0.848;56.533;0;-0.23;0;0.004;0.004;1;46748350;0;0;0;0;0;0;0;0;0;46747000;37.34960041;-121.93067855;-6.14813232;0.00000000;0.00000000;3.96267343;3.98337722;
46748467;12.2;27.3;0;0;0;-57.4;-0.43;0;0;0;0;0.001;0;0;0;0.0001;2;2;0;0;76;0;0;46748417;0;0;0;0.0001;0.882;58.749;0;-0.35;0;0.004;0.004;1;46748452;0;0;0;0;0;0;0;0;0;46747000;37.34960041;-121.93067855;-6.14813232;0.00000000;0.00000000;3.96267343;3.98337722;
46748536;12.3;27.4;0;0;0;-59.3;-0.39;0;0;0;0;0.001;0;0;0;0.0001;2;2;0;0;76;0;0;46748485;0;0;0;0.0001;0.893;59.492;0;1.44;0;0.004;0.004;1;46748452;0;0;0;0;0;0;0;0;0;46747000;37.34960041;-121.93067855;-6.14813232;0.00000000;0.00000000;3.96267343;3.98337722;
46748618;12.2;27.3;0;0;0;-57.4;-0.32;0;0;0;0;0.001;0;0;0;0.0001;2;2;0;0;76;0;0;46748571;0;0;0;0.0001;0.854;56.901;0;-0.25;0;0.004;0.004;1;46748570;0;0;0;0;0;0;0;0;0;46747000;37.34960041;-121.93067855;-6.14813232;0.00000000;0.00000000;3.96267343;3.98337722;
46748685;12.2;27.6;0;0;0;-96.8;-0.38;0;0;0;0;0.001;0;0;0;0.0001;2;2;0;0;76;0;0;46748638;0;0;0;0.0001;0.893;59.492;0;1.03;0;0.004;0.004;1;46748651;0;0;0;0;0;0;0;0;0;46747000;37.34960041;-121.93067855;-6.14813232;0.00000000;0.00000000;3.96267343;3.98337722;
46748804;12.3;27.5;0;0;0;-81.1;-0.36;0;0;0;0;0.001;0;0;0;0.0001;2;2;0;0;76;0;0;46748721;0;0;0;0.0001;0.837;55.798;0;-0.57;0;0.004;0.004;1;46748752;0;0;0;0;0;0;0;0;0;46748000;37.34959904;-121.93067191;-6.24349976;0.00000000;0.00000000;3.94240832;4.06555939;
46748867;12.1;27.4;0;0;0;-60.9;-0.37;0;0;0;0;0.001;0;0;0;0.0001;2;2;0;0;76;0;0;46748805;0;0;0;0.0001;0.843;56.165;0;-0.13;0;0.004;0.004;1;46748837;0;0;0;0;0;0;0;0;0;46748000;37.34959904;-121.93067191;-6.24349976;0.00000000;0.00000000;3.94240832;4.06555939;
46748916;12.1;27.4;0;0;0;-61.8;-0.4;0;0;0;0;0.001;0;0;0;0.0001;2;2;0;0;76;0;0;46748867;0;0;0;0.0001;0.832;55.431;0;-0.7;0;0.004;0.004;1;46748837;0;0;0;0;0;0;0;0;0;46748000;37.34959904;-121.93067191;-6.24349976;0.00000000;0.00000000;3.94240832;4.06555939;
46748987;12.1;27.4;0;0;0;-64;-0.41;0;0;0;0;0.001;0;0;0;0.0001;2;2;0;0;76;0;0;46748927;0;0;0;0.0001;0.871;58.009;0;0.97;0;0.004;0.004;1;46748953;0;0;0;0;0;0;0;0;0;46748000;37.34959904;-121.93067191;-6.24349976;0.00000000;0.00000000;3.94240832;4.06555939;
46749036;12.2;27.6;0;0;0;-110.7;-0.29;0;0;0;0;0;0;0;0;0.0001;2;2;0;0;76;0;0;46748987;0;0;0;0.0001;0.843;56.165;0;-0.62;0;0.004;0.004;1;46748953;0;0;0;0;0;0;0;0;0;46748000;37.34959904;-121.93067191;-6.24349976;0.00000000;0.00000000;3.94240832;4.06555939;
46749138;12.2;27.5;0;0;0;-72.8;-0.28;0;0;0;0;0;0;0;0;0.0001;2;2;0;0;76;0;0;46749071;0;0;0;0.0001;0.893;59.492;0;2.07;0;0.004;0.004;1;46749071;0;0;0;0;0;0;0;0;0;46748000;37.34959904;-121.93067191;-6.24349976;0.00000000;0.00000000;3.94240832;4.06555939;
46749188;12.3;27.5;0;0;0;-79.4;-0.32;0;0;0;0;0.001;0;0;0;0.0001;2;2;0;0;76;0;0;46749139;0;0;0;0.0001;0.843;56.165;0;-0.56;0;0.004;0.004;1;46749172;0;0;0;0;0;0;0;0;0;46748000;37.34959904;-121.93067191;-6.24349976;0.00000000;0.00000000;3.94240832;4.06555939;
46749259;12.4;27.4;0;0;0;-76.2;-0.31;0;0;0;0;0.001;0;0;0;0.0001;2;2;0;0;76;0;0;46749222;0;0;0;0.0001;0.904;60.236;0;1.12;0;0.004;0.004;1;46749172;0;0;0;0;0;0;0;0;0;46748000;37.34959904;-121.93067191;-6.24349976;0.00000000;0.00000000;3.94240832;4.06555939;
46749340;12.3;27.5;0;0;0;-83.6;-0.35;0;0;0;0;0;0;0;0;0.0001;2;2;0;0;76;0;0;46749280;0;0;0;0.0001;0.832;55.431;0;-0.82;0;0.004;0.004;1;46749280;0;0;0;0;0;0;0;0;0;46748000;37.34959904;-121.93067191;-6.24349976;0.00000000;0.00000000;3.94240832;4.06555939;
46749439;12.1;27.5;0;0;0;-63.5;-0.22;0;0;0;0;0.001;0;0;0;0.0001;2;2;0;0;76;0;0;46749355;0;0;0;0.0001;0.898;59.864;0;-0.44;0;0.004;0.004;1;46749370;0;0;0;0;0;0;0;0;0;46748000;37.34959904;-121.93067191;-6.24349976;0.00000000;0.00000000;3.94240832;4.06555939;
46749488;12.3;27.5;0;0;0;-65.9;-0.36;0;0;0;0;0.001;0;0;0;0.0001;2;2;0;0;76;0;0;46749470;0;0;0;0.0001;0.898;59.864;0;-0.08;0;0.004;0.004;1;46749470;0;0;0;0;0;0;0;0;0;46748000;37.34959904;-121.93067191;-6.24349976;0.00000000;0.00000000;3.94240832;4.06555939;
46749589;12.1;27.4;0;0;0;-62.7;-0.27;0;0;0;0;0;0;0;0;0.0001;2;2;0;0;76;0;0;46749572;0;0;0;0.0001;0.848;56.533;0;-0.68;0;0.004;0.004;1;46749573;0;0;0;0;0;0;0;0;0;46748000;37.34959904;-121.93067191;-6.24349976;0.00000000;0.00000000;3.94240832;4.06555939;
46749673;12.1;27.4;0;0;0;-62.2;-0.35;0;0;0;0;0.001;0;0;0;0.0001;2;2;0;0;76;0;0;46749572;0;0;0;0.0001;0.848;56.533;0;-0.68;0;0.004;0.004;1;46749573;0;0;0;0;0;0;0;0;0;46748000;37.34959904;-121.93067191;-6.24349976;0.00000000;0.00000000;3.94240832;4.06555939;
46749772;12.1;27.4;0;0;0;-60.8;-0.26;0;0;0;0;0;0;0;0;0.0001;2;2;0;0;76;0;0;46749673;0;0;0;0.0001;0.887;59.121;0;0.9;0;0.004;0.004;1;46749705;0;0;0;0;0;0;0;0;0;46749000;37.34960133;-121.93067373;-6.58255005;0.00000000;0.00000000;3.95126510;4.12801933;
46749861;12.3;27.4;0;0;0;-59.5;-0.3;0;0;0;0;0.001;0;0;0;0.0001;2;2;0;0;76;0;0;46749772;0;0;0;0.0001;0.859;57.27;0;0.28;0;0.004;0.004;1;46749788;0;0;0;0;0;0;0;0;0;46749000;37.34960133;-121.93067373;-6.58255005;0.00000000;0.00000000;3.95126510;4.12801933;
46749940;12.1;27.4;0;0;0;-63.8;-0.29;0;0;0;0;0.001;0;0;0;0.0001;2;2;0;0;76;0;0;46749890;0;0;0;0.0001;0.949;63.232;0;0.36;0;0.004;0.004;1;46749890;0;0;0;0;0;0;0;0;0;46749000;37.34960133;-121.93067373;-6.58255005;0.00000000;0.00000000;3.95126510;4.12801933;
46750040;12.2;27.4;0;0;0;-59.3;-0.32;0;0;0;0;0.001;0;0;0;0.0001;2;2;0;0;76;0;0;46749972;0;0;0;0.0001;0.915;60.982;0;1.08;0;0.004;0.004;1;46749972;0;0;0;0;0;0;0;0;0;46749000;37.34960133;-121.93067373;-6.58255005;0.00000000;0.00000000;3.95126510;4.12801933;
46750124;12.2;27.4;0;0;0;-60;-0.41;0;0;0;0;0;0;0;0;0.0001;2;2;0;0;76;0;0;46750041;0;0;0;0.0001;0.932;62.105;0;-0.06;0;0.004;0.004;1;46750074;0;0;0;0;0;0;0;0;0;46749000;37.34960133;-121.93067373;-6.58255005;0.00000000;0.00000000;3.95126510;4.12801933;
46750190;12.4;27.4;0;0;0;-61.4;-0.26;0;0;0;0;0;0;0;0;0.0001;2;2;0;0;76;0;0;46750124;0;0;0;0.0001;0.921;61.356;0;2.11;0;0.004;0.004;1;46750156;0;0;0;0;0;0;0;0;0;46749000;37.34960133;-121.93067373;-6.58255005;0.00000000;0.00000000;3.95126510;4.12801933;
46750306;12.2;27.3;0;0;0;-58.4;-0.28;0;0;0;0;0.001;0;0;0;0.0001;2;2;0;0;76;0;0;46750191;0;0;0;0.0001;0.893;59.492;0;-0.76;0;0.004;0.004;1;46750241;0;0;0;0;0;0;0;0;0;46749000;37.34960133;-121.93067373;-6.58255005;0.00000000;0.00000000;3.95126510;4.12801933;
46750394;12.2;27.3;0;0;0;-58.2;-0.32;0;0;0;0;0.001;0;0;0;0.0001;2;2;0;0;76;0;0;46750325;0;0;0;0.0001;0.865;57.639;0;1.19;0;0.004;0.004;1;46750327;0;0;0;0;0;0;0;0;0;46749000;37.34960133;-121.93067373;-6.58255005;0.00000000;0.00000000;3.95126510;4.12801933;
46750493;12.2;27.3;0;0;0;-58.2;-0.38;0;0;0;0;0;0;0;0;0.0001;2;2;0;0;76;0;0;46750458;0;0;0;0.0001;0.887;59.121;0;1;0;0.004;0.004;1;46750327;0;0;0;0;0;0;0;0;0;46749000;37.34960133;-121.93067373;-6.58255005;0.00000000;0.00000000;3.95126510;4.12801933;
46750593;12.1;27.4;0;0;0;-58.4;-0.39;0;0;0;0;0;0;0;0;0.0001;2;2;0;0;76;0;0;46750526;0;0;0;0.0001;0.843;56.165;0;-0.11;0;0.004;0.004;1;46750506;0;0;0;0;0;0;0;0;0;46749000;37.34960133;-121.93067373;-6.58255005;0.00000000;0.00000000;3.95126510;4.12801933;
46750692;12.3;27.4;0;0;0;-59.2;-0.45;0;0;0;0;0.001;0;0;0;0.0001;2;2;0;0;76;0;0;46750609;0;0;0;0.0001;0.876;58.379;0;-0.39;0;0.004;0.004;1;46750609;0;0;0;0;0;0;0;0;0;46749000;37.34960133;-121.93067373;-6.58255005;0.00000000;0.00000000;3.95126510;4.12801933;
46750810;12.3;27.4;0;0;0;-59.4;-0.32;0;0;0;0;0;0;0;0;0.0001;2;2;0;0;76;0;0;46750692;0;0;0;0.0001;0.854;56.901;0;2.08;0;0.004;0.004;1;46750759;0;0;0;0;0;0;0;0;0;46750000;37.34959929;-121.93067724;-6.45544434;0.00000000;0.00000000;4.13909006;4.32184744;
46750877;12.4;27.4;0;0;0;-60.5;-0.3;0;0;0;0;0.001;0;0;0;0.0001;2;2;0;0;76;0;0;46750843;0;0;0;0.0001;0.859;57.27;0;1.23;0;0.004;0.004;1;46750843;0;0;0;0;0;0;0;0;0;46750000;37.34959929;-121.93067724;-6.45544434;0.00000000;0.00000000;4.13909006;4.32184744;
46750928;12.2;27.4;0;0;0;-59.2;-0.25;0;0;0;0;0.001;0;0;0;0.0001;2;2;0;0;76;0;0;46750910;0;0;0;0.0001;0.859;57.27;0;-0.49;0;0.004;0.004;1;46750910;0;0;0;0;0;0;0;0;0;46750000;37.34959929;-121.93067724;-6.45544434;0.00000000;0.00000000;4.13909006;4.32184744;
46751026;12.3;27.4;0;0;0;-61;-0.35;0;0;0;0;0.001;0;0;0;0.0001;2;2;0;0;76;0;0;46750993;0;0;0;0.0001;0.865;57.639;0;-0.48;0;0.004;0.004;1;46750993;0;0;0;0;0;0;0;0;0;46750000;37.34959929;-121.93067724;-6.45544434;0.00000000;0.00000000;4.13909006;4.32184744;
46751110;12.4;27.4;0;0;0;-60.2;-0.35;0;0;0;0;0;0;0;0;0.0001;2;2;0;0;76;0;0;46750993;0;0;0;0.0001;0.865;57.639;0;-0.48;0;0.004;0.004;1;46750993;0;0;0;0;0;0;0;0;0;46750000;37.34959929;-121.93067724;-6.45544434;0.00000000;0.00000000;4.13909006;4.32184744;
46751176;12.1;27.4;0;0;0;-59.8;-0.3;0;0;0;0;0.001;0;0;0;0.0001;2;2;0;0;76;0;0;46751110;0;0;0;0.0001;0.949;63.232;0;0.79;0;0.004;0.004;1;46751164;0;0;0;0;0;0;0;0;0;46750000;37.34959929;-121.93067724;-6.45544434;0.00000000;0.00000000;4.13909006;4.32184744;
46751282;12.3;27.5;0;0;0;-62.8;-0.33;0;0;0;0;0.001;0;0;0;0.0001;2;2;0;0;76;0;0;46751211;0;0;0;0.0001;0.882;58.749;0;0.94;0;0.004;0.004;1;46751164;0;0;0;0;0;0;0;0;0;46750000;37.34959929;-121.93067724;-6.45544434;0.00000000;0.00000000;4.13909006;4.32184744;
46751378;12.1;27.4;0;0;0;-61;-0.34;0;0;0;0;0.001;0;0;0;0.0001;2;2;0;0;76;0;0;46751310;0;0;0;0.0001;0.865;57.639;0;0.04;0;0.004;0.004;1;46751309;0;0;0;0;0;0;0;0;0;46750000;37.34959929;-121.93067724;-6.45544434;0.00000000;0.00000000;4.13909006;4.32184744;
46751445;12.3;27.4;0;0;0;-60.7;-0.31;0;0;0;0;0.001;0;0;0;0.0001;2;2;0;0;76;0;0;46751394;0;0;0;0.0001;0.915;60.982;0;0.66;0;0.004;0.004;1;46751409;0;0;0;0;0;0;0;0;0;46750000;37.34959929;-121.93067724;-6.45544434;0.00000000;0.00000000;4.13909006;4.32184744;
46751564;12.2;27.4;0;0;0;-72.9;-0.32;0;0;0;0;0.001;0;0;0;0.0001;2;2;0;0;76;0;0;46751481;0;0;0;0.0001;0.859;57.27;0;-0.55;0;0.004;0.004;1;46751481;0;0;0;0;0;0;0;0;0;46750000;37.34959929;-121.93067724;-6.45544434;0.00000000;0.00000000;4.13909006;4.32184744;
46751624;12.2;27.3;0;0;0;-57.3;-0.39;0;0;0;0;0.001;0;0;0;0.0001;2;2;0;0;76;0;0;46751564;0;0;0;0.0001;0.882;58.749;0;0.08;0;0.004;0.004;1;46751597;0;0;0;0;0;0;0;0;0;46750000;37.34959929;-121.93067724;-6.45544434;0.00000000;0.00000000;4.13909006;4.32184744;
46751679;12.2;27.4;0;0;0;-59.7;-0.39;0;0;0;0;0.001;0;0;0;0.0001;2;2;0;0;76;0;0;46751662;0;0;0;0.0001;0.921;61.356;0;0.73;0;0.004;0.004;1;46751597;0;0;0;0;0;0;0;0;0;46750000;37.34959929;-121.93067724;-6.45544434;0.00000000;0.00000000;4.13909006;4.32184744;
46751782;12.2;27.5;0;0;0;-72.6;-0.34;0;0;0;0;0.001;0;0;0;0.0001;2;2;0;0;76;0;0;46751713;0;0;0;0.0001;0.871;58.009;0;0.65;0;0.004;0.004;1;46751713;0;0;0;0;0;0;0;0;0;46751000;37.34960076;-121.93067945;-6.70779419;0.00000000;0.00000000;3.92123723;4.00745726;
46751866;12.2;27.5;0;0;0;-75.2;-0.39;0;0;0;0;0;0;0;0;0.0001;2;2;0;0;76;0;0;46751782;0;0;0;0.0001;0.898;59.864;0;0.23;0;0.004;0.004;1;46751798;0;0;0;0;0;0;0;0;0;46751000;37.34960076;-121.93067945;-6.70779419;0.00000000;0.00000000;3.92123723;4.00745726;
46751919;12.1;27.6;0;0;0;-84.1;-0.37;0;0;0;0;0;0;0;0;0.0001;2;2;0;0;76;0;0;46751866;0;0;0;0.0001;0.848;56.533;0;2.13;0;0.004;0.004;1;46751898;0;0;0;0;0;0;0;0;0;46751000;37.34960076;-121.93067945;-6.70779419;0.00000000;0.00000000;3.92123723;4.00745726;
46751980;12.1;27.7;0;0;0;-68.8;-0.31;0;0;0;0;0.001;0;0;0;0.0001;2;2;0;0;76;0;0;46751946;0;0;0;0.0001;0.854;56.901;0;-1.11;0;0.004;0.004;1;46751898;0;0;0;0;0;0;0;0;0;46751000;37.34960076;-121.93067945;-6.70779419;0.00000000;0.00000000;3.92123723;4.00745726;
46752050;12.2;27.4;0;0;0;-86.5;-0.3;0;0;0;0;0;0;0;0;0.0001;2;2;0;0;76;0;0;46752018;0;0;0;0.0001;0.865;57.639;0;-0.87;0;0.004;0.004;1;46752018;0;0;0;0;0;0;0;0;0;46751000;37.34960076;-121.93067945;-6.70779419;0.00000000;0.00000000;3.92123723;4.00745726;
46752098;12.4;27.4;0;0;0;-79;-0.38;0;0;0;0;0.001;0;0;0;0.0001;2;2;0;0;76;0;0;46752018;0;0;0;0.0001;0.865;57.639;0;-0.87;0;0.004;0.004;1;46752018;0;0;0;0;0;0;0;0;0;46751000;37.34960076;-121.93067945;-6.70779419;0.00000000;0.00000000;3.92123723;4.00745726;
46752166;12.2;27.5;0;0;0;-63.7;-0.33;0;0;0;0;0.001;0;0;0;0.0001;2;2;0;0;76;0;0;46752116;0;0;0;0.0001;0.926;61.73;0;-0.94;0;0.004;0.004;1;46752132;0;0;0;0;0;0;0;0;0;46751000;37.34960076;-121.93067945;-6.70779419;0.00000000;0.00000000;3.92123723;4.00745726;
46752250;12.2;27.4;0;0;0;-59.8;-0.37;0;0;0;0;0.001;0;0;0;0.0001;2;2;0;0;76;0;0;46752232;0;0;0;0.0001;0.943;62.856;0;-0.22;0;0.004;0.004;1;46752232;0;0;0;0;0;0;0;0;0;46751000;37.34960076;-121.93067945;-6.70779419;0.00000000;0.00000000;3.92123723;4.00745726;
46752316;12.4;27.6;0;0;0;-64.6;-0.42;0;0;0;0;0.001;0;0;0;0.0001;2;2;0;0;76;0;0;46752232;0;0;0;0.0001;0.943;62.856;0;-0.22;0;0.004;0.004;1;46752232;0;0;0;0;0;0;0;0;0;46751000;37.34960076;-121.93067945;-6.70779419;0.00000000;0.00000000;3.92123723;4.00745726;
46752401;12.2;27.4;0;0;0;-59.4;-0.42;0;0;0;0;0.001;0;0;0;0.0001;2;2;0;0;76;0;0;46752317;0;0;0;0.0001;0.904;60.236;0;0.77;0;0.004;0.004;1;46752354;0;0;0;0;0;0;0;0;0;46751000;37.34960076;-121.93067945;-6.70779419;0.00000000;0.00000000;3.92123723;4.00745726;
46752465;12.2;27.3;0;0;0;-59;-0.3;0;0;0;0;0.001;0;0;0;0.0001;2;2;0;0;76;0;0;46752401;0;0;0;0.0001;0.865;57.639;0;-0.88;0;0.004;0.004;1;46752430;0;0;0;0;0;0;0;0;0;46751000;37.34960076;-121.93067945;-6.70779419;0.00000000;0.00000000;3.92123723;4.00745726;
46752537;12.4;27.4;0;0;0;-58.8;-0.4;0;0;0;0;0.001;0;0;0;0.0001;2;2;0;0;76;0;0;46752509;0;0;0;0.0001;0.876;58.379;0;2.18;0;0.004;0.004;1;46752509;0;0;0;0;0;0;0;0;0;46751000;37.34960076;-121.93067945;-6.70779419;0.00000000;0.00000000;3.92123723;4.00745726;
46752621;12.2;27.3;0;0;0;-57.2;-0.41;0;0;0;0;0.001;0;0;0;0.0001;2;2;0;0;76;0;0;46752509;0;0;0;0.0001;0.876;58.379;0;2.18;0;0.004;0.004;1;46752509;0;0;0;0;0;0;0;0;0;46751000;37.34960076;-121.93067945;-6.70779419;0.00000000;0.00000000;3.92123723;4.00745726;
46752705;12.3;27.3;0;0;0;-58.2;-0.33;0;0;0;0;0.001;0;0;0;0.0001;2;2;0;0;76;0;0;46752635;0;0;0;0.0001;0.859;57.27;0;1.56;0;0.004;0.004;1;46752650;0;0;0;0;0;0;0;0;0;46751000;37.34960076;-121.93067945;-6.70779419;0.00000000;0.00000000;3.92123723;4.00745726;
46752786;12.3;27.4;0;0;0;-58.4;-0.41;0;0;0;0;0;0;0;0;0.0001;2;2;0;0;76;0;0;46752737;0;0;0;0.0001;0.843;56.165;0;-0.75;0;0.004;0.004;1;46752738;0;0;0;0;0;0;0;0;0;46752000;37.34960176;-121.93067720;-6.74542236;0.00000000;0.00000000;3.79009247;3.77982616;
46752884;12.3;27.3;0;0;0;-57.3;-0.32;0;0;0;0;0.001;0;0;0;0.0001;2;2;0;0;76;0;0;46752804;0;0;0;0.0001;0.848;56.533;0;-0.96;0;0.004;0.004;1;46752820;0;0;0;0;0;0;0;0;0;46752000;37.34960176;-121.93067720;-6.74542236;0.00000000;0.00000000;3.79009247;3.77982616;
46752952;12.1;27.4;0;0;0;-62.8;-0.34;0;0;0;0;0.001;0;0;0;0.0001;2;2;0;0;76;0;0;46752910;0;0;0;0.0001;0.871;58.009;0;-0.42;0;0.004;0.004;1;46752910;0;0;0;0;0;0;0;0;0;46752000;37.34960176;-121.93067720;-6.74542236;0.00000000;0.00000000;3.79009247;3.77982616;
46753072;12.4;27.5;0;0;0;-62.7;-0.21;0;0;0;0;0.001;0;0;0;0.0001;2;2;0;0;76;0;0;46753007;0;0;0;0.0001;0.826;55.064;0;-1.34;0;0.004;0.004;1;46753007;0;0;0;0;0;0;0;0;0;46752000;37.34960176;-121.93067720;-6.74542236;0.00000000;0.00000000;3.79009247;3.77982616;
46753159;12.2;27.5;0;0;0;-62.3;-0.28;0;0;0;0;0.001;0;0;0;0.0001;2;2;0;0;76;0;0;46753087;0;0;0;0.0001;0.91;60.609;0;-1.72;0;0.004;0.004;1;46753102;0;0;0;0;0;0;0;0;0;46752000;37.34960176;-121.93067720;-6.74542236;0.00000000;0.00000000;3.79009247;3.77982616;
46753252;12.3;27.4;0;0;0;-59.7;-0.31;0;0;0;0;0;0;0;0;0.0001;2;2;0;0;76;0;0;46753186;0;0;0;0.0001;0.882;58.749;0;0.87;0;0.004;0.004;1;46753186;0;0;0;0;0;0;0;0;0;46752000;37.34960176;-121.93067720;-6.74542236;0.00000000;0.00000000;3.79009247;3.77982616;
46753308;12.3;27.4;0;0;0;-59.8;-0.29;0;0;0;0;0.001;0;0;0;0.0001;2;2;0;0;76;0;0;46753253;0;0;0;0.0001;0.932;62.105;0;0.37;0;0.004;0.004;1;46753267;0;0;0;0;0;0;0;0;0;46752000;37.34960176;-121.93067720;-6.74542236;0.00000000;0.00000000;3.79009247;3.77982616;
46753400;12.3;27.3;0;0;0;-57.6;-0.39;0;0;0;0;0.001;0;0;0;0.0001;2;2;0;0;76;0;0;46753338;0;0;0;0.0001;0.921;61.356;0;1.13;0;0.004;0.004;1;46753338;0;0;0;0;0;0;0;0;0;46752000;37.34960176;-121.93067720;-6.74542236;0.00000000;0.00000000;3.79009247;3.77982616;
46753488;12.1;27.3;0;0;0;-57.9;-0.3;0;0;0;0;0.001;0;0;0;0.0001;2;2;0;0;76;0;0;46753401;0;0;0;0.0001;0.887;59.121;0;1.44;0;0.004;0.004;1;46753418;0;0;0;0;0;0;0;0;0;46752000;37.34960176;-121.93067720;-6.74542236;0.00000000;0.00000000;3.79009247;3.77982616;
46753553;12.3;27.3;0;0;0;-57.8;-0.36;0;0;0;0;0.001;0;0;0;0.0001;2;2;0;0;76;0;0;46753489;0;0;0;0.0001;0.904;60.236;0;0.65;0;0.004;0.004;1;46753527;0;0;0;0;0;0;0;0;0;46752000;37.34960176;-121.93067720;-6.74542236;0.00000000;0.00000000;3.79009247;3.77982616;
46753603;12.1;27.3;0;0;0;-57.5;-0.25;0;0;0;0;0.001;0;0;0;0.0001;2;2;0;0;76;0;0;46753554;0;0;0;0.0001;0.821;54.698;0;-0.35;0;0.004;0.004;1;46753527;0;0;0;0;0;0;0;0;0;46752000;37.34960176;-121.93067720;-6.74542236;0.00000000;0.00000000;3.79009247;3.77982616;
46753658;12.2;27.3;0;0;0;-57.8;-0.39;0;0;0;0;0.001;0;0;0;0.0001;2;2;0;0;76;0;0;46753604;0;0;0;0.0001;0.915;60.982;0;1.41;0;0.004;0.004;1;46753625;0;0;0;0;0;0;0;0;0;46752000;37.34960176;-121.93067720;-6.74542236;0.00000000;0.00000000;3.79009247;3.77982616;
46753724;12.1;27.4;0;0;0;-59.9;-0.33;0;0;0;0;0.001;0;0;0;0.0001;2;2;0;0;76;0;0;46753695;0;0;0;0.0001;0.854;56.901;0;-0.85;0;0.004;0.004;1;46753625;0;0;0;0;0;0;0;0;0;46752000;37.34960176;-121.93067720;-6.74542236;0.00000000;0.00000000;3.79009247;3.77982616;
46753839;12.2;27.3;0;0;0;-57.6;-0.33;0;0;0;0;0;0;0;0;0.0001;2;2;0;0;76;0;0;46753758;0;0;0;0.0001;0.859;57.27;0;-0.53;0;0.004;0.004;1;46753757;0;0;0;0;0;0;0;0;0;46753000;37.34960628;-121.93067872;-6.52902222;0.00000000;0.00000000;3.79009247;3.66274810;
46753908;12.3;27.4;0;0;0;-59.2;-0.32;0;0;0;0;0;0;0;0;0.0001;2;2;0;0;76;0;0;46753840;0;0;0;0.0001;0.921;61.356;0;-0.79;0;0.004;0.004;1;46753872;0;0;0;0;0;0;0;0;0;46753000;37.34960628;-121.93067872;-6.52902222;0.00000000;0.00000000;3.79009247;3.66274810;
46753968;12.3;27.4;0;0;0;-58.3;-0.38;0;0;0;0;0.001;0;0;0;0.0001;2;2;0;0;76;0;0;46753908;0;0;0;0.0001;0.843;56.165;0;-0.46;0;0.004;0.004;1;46753872;0;0;0;0;0;0;0;0;0;46753000;37.34960628;-121.93067872;-6.52902222;0.00000000;0.00000000;3.79009247;3.66274810;
46754059;12.1;27.3;0;0;0;-57;-0.33;0;0;0;0;0.001;0;0;0;0.0001;2;2;0;0;76;0;0;46753969;0;0;0;0.0001;0.843;56.165;0;-1.48;0;0.004;0.004;1;46753989;0;0;0;0;0;0;0;0;0;46753000;37.34960628;-121.93067872;-6.52902222;0.00000000;0.00000000;3.79009247;3.66274810;
46754142;12.2;27.4;0;0;0;-58.1;-0.31;0;0;0;0;0.001;0;0;0;0.0001;2;2;0;0;76;0;0;46754075;0;0;0;0.0001;0.932;62.105;0;1.82;0;0.004;0.004;1;46754091;0;0;0;0;0;0;0;0;0;46753000;37.34960628;-121.93067872;-6.52902222;0.00000000;0.00000000;3.79009247;3.66274810;
46754208;12.1;27.3;0;0;0;-57.7;-0.29;0;0;0;0;0.001;0;0;0;0.0001;2;2;0;0;76;0;0;46754176;0;0;0;0.0001;0.882;58.749;0;0.38;0;0.004;0.004;1;46754176;0;0;0;0;0;0;0;0;0;46753000;37.34960628;-121.93067872;-6.52902222;0.00000000;0.00000000;3.79009247;3.66274810;
46754302;12.3;27.4;0;0;0;-58.5;-0.26;0;0;0;0;0;0;0;0;0.0001;2;2;0;0;76;0;0;46754242;0;0;0;0.0001;0.837;55.798;0;-0.38;0;0.004;0.004;1;46754242;0;0;0;0;0;0;0;0;0;46753000;37.34960628;-121.93067872;-6.52902222;0.00000000;0.00000000;3.79009247;3.66274810;
46754349;12.2;27.3;0;0;0;-58.5;-0.39;0;0;0;0;0.001;0;0;0;0.0001;2;2;0;0;76;0;0;46754303;0;0;0;0.0001;0.871;58.009;0;-0.32;0;0.004;0.004;1;46754320;0;0;0;0;0;0;0;0;0;46753000;37.34960628;-121.93067872;-6.52902222;0.00000000;0.00000000;3.79009247;3.66274810;
46754444;12.1;27.3;0;0;0;-58.8;-0.35;0;0;0;0;0;0;0;0;0.0001;2;2;0;0;76;0;0;46754366;0;0;0;0.0001;0.938;62.48;0;1.93;0;0.004;0.004;1;46754426;0;0;0;0;0;0;0;0;0;46753000;37.34960628;-121.93067872;-6.52902222;0.00000000;0.00000000;3.79009247;3.66274810;
