ms_today;input_voltage;temp_mos_max;temp_mos_1;temp_mos_2;temp_mos_3;temp_motor;current_motor;current_in;d_axis_current;q_axis_current;erpm;duty_cycle;amp_hours_used;amp_hours_charged;watt_hours_used;watt_hours_charged;tachometer;tachometer_abs;encoder_position;fault_code;vesc_id;d_axis_voltage;q_axis_voltage;ms_today_setup;amp_hours_setup;amp_hours_charged_setup;watt_hours_setup;watt_hours_charged_setup;battery_level;battery_wh_tot;current_in_setup;current_motor_setup;speed_meters_per_sec;tacho_meters;tacho_abs_meters;num_vescs;ms_today_imu;roll;pitch;yaw;accX;accY;accZ;gyroX;gyroY;gyroZ;gnss_posTime;gnss_lat;gnss_lon;gnss_alt;gnss_gVel;gnss_vVel;gnss_hAcc;gnss_vAcc;
3169550;46.4;32.7;0;0;0;-271.6;0;0;0;0;0;0;0.0281;0.0001;1.2908;0.0048;106353;109537;307.511;0;0;0;0;3159318;0.0281;0.0001;1.2908;0.0048;9.152;2449.28;0;0;0;660.28;680.048;1;3156346;0;0;0;0;0;0;0;0;0;-1;0.00000000;0.00000000;0.00000000;0.00000000;0.00000000;0.00000000;0.00000000;
3169616;46.2;32.7;0;0;0;-272.1;0;0;0;0;0;0;0.0281;0.0001;1.2908;0.0048;106353;109537;307.753;0;0;0;0;3169582;0.0281;0.0001;1.2908;0.0048;8.76;2344.34;0;0;0;660.28;680.048;1;3169582;0;0;0;0;0;0;0;0;0;-1;0.00000000;0.00000000;0.00000000;0.00000000;0.00000000;0.00000000;0.00000000;
3169668;45.5;32.8;0;0;0;-273;0;0;0;0;0;0;0.0281;0.0001;1.2908;0.0048;106353;109537;307.652;0;0;0;0;3169582;0.0281;0.0001;1.2908;0.0048;8.76;2344.34;0;0;0;660.28;680.048;1;3169582;0;0;0;0;0;0;0;0;0;-1;0.00000000;0.00000000;0.00000000;0.00000000;0.00000000;0.00000000;0.00000000;
3169787;45.9;32.6;0;0;0;-240.3;0;0;0;0;0;0;0.0281;0.0001;1.2908;0.0048;106353;109537;307.751;0;0;0;0;3169718;0.0281;0.0001;1.2908;0.0048;8.603;2302.38;0;0;0;660.28;680.048;1;3169718;0;0;0;0;0;0;0;0;0;-1;0.00000000;0.00000000;0.00000000;0.00000000;0.00000000;0.00000000;0.00000000;
3169907;46.5;32.4;0;0;0;-240.3;0;0;0;0;0;0;0.0281;0.0001;1.2908;0.0048;106353;109537;307.738;0;0;0;0;3169867;0.0281;0.0001;1.2908;0.0048;9.127;2442.53;0;0;0;660.28;680.048;1;3169885;0;0;0;0;0;0;0;0;0;-1;0.00000000;0.00000000;0.00000000;0.00000000;0.00000000;0.00000000;0.00000000;
3169967;45.5;32.7;0;0;0;-268.2;0;0;0;0;0;0;0.0281;0.0001;1.2908;0.0048;106353;109537;307.811;0;0;0;0;3169960;0.0281;0.0001;1.2908;0.0048;8.595;2300.18;0;0;0;660.28;680.048;1;3169885;0;0;0;0;0;0;0;0;0;-1;0.00000000;0.00000000;0.00000000;0.00000000;0.00000000;0.00000000;0.00000000;
3170088;45.5;32.7;0;0;0;-269.4;0;0;0;0;0;0;0.0281;0.0001;1.2908;0.0048;106353;109537;308.062;0;0;0;0;3170028;0.0281;0.0001;1.2908;0.0048;9.093;2433.54;0;0;0;660.28;680.048;1;3170009;0;0;0;0;0;0;0;0;0;-1;0.00000000;0.00000000;0.00000000;0.00000000;0.00000000;0.00000000;0.00000000;
3170184;45.9;32.8;0;0;0;-271.3;0;0;0;0;0;0;0.0281;0.0001;1.2908;0.0048;106353;109537;308.197;0;0;0;0;3170092;0.0281;0.0001;1.2908;0.0048;8.562;2291.38;0;0;0;660.28;680.048;1;3170131;0;0;0;0;0;0;0;0;0;-1;0.00000000;0.00000000;0.00000000;0.00000000;0.00000000;0.00000000;0.00000000;
3170238;45.4;32.7;0;0;0;-271.5;0;0;0;0;0;0;0.0281;0.0001;1.2908;0.0048;106353;109537;308.229;0;0;0;0;3170226;0.0281;0.0001;1.2908;0.0048;8.835;2364.31;0;0;0;660.28;680.048;1;3170235;0;0;0;0;0;0;0;0;0;-1;0.00000000;0.00000000;0.00000000;0.00000000;0.00000000;0.00000000;0.00000000;
3170328;45.9;32.6;0;0;0;-250.5;0;0;0;0;0;0;0.0281;0.0001;1.2908;0.0048;106353;109537;308.401;0;0;0;0;3170319;0.0281;0.0001;1.2908;0.0048;8.529;2282.59;0;0;0;660.28;680.048;1;3170235;0;0;0;0;0;0;0;0;0;-1;0.00000000;0.00000000;0.00000000;0.00000000;0.00000000;0.00000000;0.00000000;
3170388;45.3;32.8;0;0;0;-272.7;0;0;0;0;0;0;0.0281;0.0001;1.2908;0.0048;106353;109537;308.519;0;0;0;0;3170319;0.0281;0.0001;1.2908;0.0048;8.529;2282.59;0;0;0;660.28;680.048;1;3170357;0;0;0;0;0;0;0;0;0;-1;0.00000000;0.00000000;0.00000000;0.00000000;0.00000000;0.00000000;0.00000000;
3170513;45.5;32.4;0;0;0;-203.5;0;0;0;0;0;0;0.0281;0.0001;1.2908;0.0048;106353;109537;308.531;0;0;0;0;3170433;0.0281;0.0001;1.2908;0.0048;8.876;2375.43;0;0;0;660.28;680.048;1;3170446;0;0;0;0;0;0;0;0;0;-1;0.00000000;0.00000000;0.00000000;0.00000000;0.00000000;0.00000000;0.00000000;
3170570;45.5;32.7;0;0;0;-255.6;0;0;0;0;0;0;0.0281;0.0001;1.2908;0.0048;106353;109537;308.826;0;0;0;0;3170538;0.0281;0.0001;1.2908;0.0048;8.735;2337.7;0;0;0;660.28;680.048;1;3170569;0;0;0;0;0;0;0;0;0;-1;0.00000000;0.00000000;0.00000000;0.00000000;0.00000000;0.00000000;0.00000000;
3170692;46.5;32.8;0;0;0;-273;0;0;0;0;0;0;0.0281;0.0001;1.2908;0.0048;106353;109537;308.842;0;0;0;0;3170599;0.0281;0.0001;1.2908;0.0048;9.11;2438.03;0;0;0;660.28;680.048;1;3170569;0;0;0;0;0;0;0;0;0;-1;0.00000000;0.00000000;0.00000000;0.00000000;0.00000000;0.00000000;0.00000000;
3170782;46.4;32.7;0;0;0;-252.2;0;0;0;0;0;0;0.0281;0.0001;1.2908;0.0048;106353;109537;308.974;0;0;0;0;3170749;0.0281;0.0001;1.2908;0.0048;8.918;2386.57;0;0;0;660.28;680.048;1;3170748;0;0;0;0;0;0;0;0;0;-1;0.00000000;0.00000000;0.00000000;0.00000000;0.00000000;0.00000000;0.00000000;
3170878;46.6;32.7;0;0;0;-271.3;0;0;0;0;0;0;0.0281;0.0001;1.2908;0.0048;106353;109537;309.14;0;0;0;0;3170808;0.0281;0.0001;1.2908;0.0048;9.01;2411.13;0;0;0;660.28;680.048;1;3170812;0;0;0;0;0;0;0;0;0;3170754;37.34954390;-121.93060820;-12.69999981;0.00000000;0.00000000;20.76199913;2.00000000;
3170962;46.5;32.6;0;0;0;-247.6;0;0;0;0;0;0;0.0281;0.0001;1.2908;0.0048;106353;109537;309.32;0;0;0;0;3170897;0.0281;0.0001;1.2908;0.0048;8.752;2342.12;0;0;0;660.28;680.048;1;3170900;0;0;0;0;0;0;0;0;0;3170754;37.34954390;-121.93060820;-12.69999981;0.00000000;0.00000000;20.76199913;2.00000000;
3171021;46.4;32.7;0;0;0;-272.9;0;0;0;0;0;0;0.0281;0.0001;1.2908;0.0048;106353;109537;309.152;0;0;0;0;3170963;0.0281;0.0001;1.2908;0.0048;8.901;2382.11;0;0;0;660.28;680.048;1;3170987;0;0;0;0;0;0;0;0;0;3170754;37.34954390;-121.93060820;-12.69999981;0.00000000;0.00000000;20.76199913;2.00000000;
3171109;45.7;32.7;0;0;0;-261.2;0;0;0;0;0;0;0.0281;0.0001;1.2908;0.0048;106353;109537;309.149;0;0;0;0;3171048;0.0281;0.0001;1.2908;0.0048;8.802;2355.43;0;0;0;660.28;680.048;1;3171077;0;0;0;0;0;0;0;0;0;3170754;37.34954390;-121.93060820;-12.69999981;0.00000000;0.00000000;20.76199913;2.00000000;
3171199;46.3;32.7;0;0;0;-271.3;0;0;0;0;0;0;0.0281;0.0001;1.2908;0.0048;106353;109537;309.311;0;0;0;0;3171149;0.0281;0.0001;1.2908;0.0048;9.262;2478.59;0;0;0;660.28;680.048;1;3171149;0;0;0;0;0;0;0;0;0;3170754;37.34954390;-121.93060820;-12.69999981;0.00000000;0.00000000;20.76199913;2.00000000;
3171297;46;32.4;0;0;0;-222;0;0;0;0;0;0;0.0281;0.0001;1.2908;0.0048;106353;109537;309.252;0;0;0;0;3171258;0.0281;0.0001;1.2908;0.0048;8.612;2304.58;0;0;0;660.28;680.048;1;3171260;0;0;0;0;0;0;0;0;0;3170754;37.34954390;-121.93060820;-12.69999981;0.00000000;0.00000000;20.76199913;2.00000000;
3171409;45.5;32.7;0;0;0;-268.1;0;0;0;0;0;0;0.0281;0.0001;1.2908;0.0048;106353;109537;309.328;0;0;0;0;3171341;0.0281;0.0001;1.2908;0.0048;8.546;2286.98;0;0;0;660.28;680.048;1;3171348;0;0;0;0;0;0;0;0;0;3170754;37.34954390;-121.93060820;-12.69999981;0.00000000;0.00000000;20.76199913;2.00000000;
3171469;45.5;32.4;0;0;0;-206.3;0;0;0;0;0;0;0.0281;0.0001;1.2908;0.0048;106353;109537;309.384;0;0;0;0;3171443;0.0281;0.0001;1.2908;0.0048;8.57;2293.58;0;0;0;660.28;680.048;1;3171444;0;0;0;0;0;0;0;0;0;3170754;37.34954390;-121.93060820;-12.69999981;0.00000000;0.00000000;20.76199913;2.00000000;
3171529;46.4;32.7;0;0;0;-267.9;0;0;0;0;0;0;0.0281;0.0001;1.2908;0.0048;106353;109537;309.541;0;0;0;0;3171443;0.0281;0.0001;1.2908;0.0048;8.57;2293.58;0;0;0;660.28;680.048;1;3171444;0;0;0;0;0;0;0;0;0;3170754;37.34954390;-121.93060820;-12.69999981;0.00000000;0.00000000;20.76199913;2.00000000;
3171649;46.6;32.7;0;0;0;-273.1;0;0;0;0;0;0;0.0281;0.0001;1.2908;0.0048;106353;109537;309.622;0;0;0;0;3171582;0.0281;0.0001;1.2908;0.0048;8.843;2366.53;0;0;0;660.28;680.048;1;3171584;0;0;0;0;0;0;0;0;0;3170754;37.34954390;-121.93060820;-12.69999981;0.00000000;0.00000000;20.76199913;2.00000000;
3171739;45.5;32.8;0;0;0;-268.5;0;0;0;0;0;0;0.0281;0.0001;1.2908;0.0048;106353;109537;309.658;0;0;0;0;3171650;0.0281;0.0001;1.2908;0.0048;9.035;2417.85;0;0;0;660.28;680.048;1;3171687;0;0;0;0;0;0;0;0;0;3170754;37.34954390;-121.93060820;-12.69999981;0.00000000;0.00000000;20.76199913;2.00000000;
3171835;45.9;32.7;0;0;0;-272;0;0;0;0;0;0;0.0281;0.0001;1.2908;0.0048;106353;109537;309.971;0;0;0;0;3171740;0.0281;0.0001;1.2908;0.0048;9.06;2424.57;0;0;0;660.28;680.048;1;3171768;0;0;0;0;0;0;0;0;0;3170754;37.34954390;-121.93060820;-12.69999981;0.00000000;0.00000000;20.76199913;2.00000000;
3171890;45.8;32.3;0;0;0;-196;0;0;0;0;0;0;0.0281;0.0001;1.2908;0.0048;106353;109537;310.071;0;0;0;0;3171836;0.0281;0.0001;1.2908;0.0048;9.093;2433.54;0;0;0;660.28;680.048;1;3171857;0;0;0;0;0;0;0;0;0;3170754;37.34954390;-121.93060820;-12.69999981;0.00000000;0.00000000;20.76199913;2.00000000;
3171979;46.6;32.7;0;0;0;-270.6;0;0;0;0;0;0;0.0281;0.0001;1.2908;0.0048;106353;109537;310.179;0;0;0;0;3171920;0.0281;0.0001;1.2908;0.0048;8.91;2384.34;0;0;0;660.28;680.048;1;3171934;0;0;0;0;0;0;0;0;0;3170754;37.34954390;-121.93060820;-12.69999981;0.00000000;0.00000000;20.76199913;2.00000000;
3172038;46.5;32.7;0;0;0;-255.1;0;0;0;0;0;0;0.0281;0.0001;1.2908;0.0048;106353;109537;310.111;0;0;0;0;3172019;0.0281;0.0001;1.2908;0.0048;8.926;2388.8;0;0;0;660.28;680.048;1;3172020;0;0;0;0;0;0;0;0;0;3170754;37.34954390;-121.93060820;-12.69999981;0.00000000;0.00000000;20.76199913;2.00000000;
3172104;46.4;32.7;0;0;0;-260.9;0;0;0;0;0;0;0.0281;0.0001;1.2908;0.0048;106353;109537;310.241;0;0;0;0;3172019;0.0281;0.0001;1.2908;0.0048;8.926;2388.8;0;0;0;660.28;680.048;1;3172020;0;0;0;0;0;0;0;0;0;3170754;37.34954390;-121.93060820;-12.69999981;0.00000000;0.00000000;20.76199913;2.00000000;
3172250;45.7;32.7;0;0;0;-261.1;0;0;0;0;0;0;0.0281;0.0001;1.2908;0.0048;106353;109537;310.356;0;0;0;0;3172105;0.0281;0.0001;1.2908;0.0048;8.793;2353.21;0;0;0;660.28;680.048;1;3172128;0;0;0;0;0;0;0;0;0;3170754;37.34954390;-121.93060820;-12.69999981;0.00000000;0.00000000;20.76199913;2.00000000;
3172319;45.9;32.7;0;0;0;-268.8;0;0;0;0;0;0;0.0281;0.0001;1.2908;0.0048;106353;109537;310.214;0;0;0;0;3172251;0.0281;0.0001;1.2908;0.0048;8.719;2333.27;0;0;0;660.28;680.048;1;3172281;0;0;0;0;0;0;0;0;0;3170754;37.34954390;-121.93060820;-12.69999981;0.00000000;0.00000000;20.76199913;2.00000000;
3172380;46;32.7;0;0;0;-269.4;0;0;0;0;0;0;0.0281;0.0001;1.2908;0.0048;106353;109537;310.357;0;0;0;0;3172320;0.0281;0.0001;1.2908;0.0048;9.186;2458.28;0;0;0;660.28;680.048;1;3172281;0;0;0;0;0;0;0;0;0;3170754;37.34954390;-121.93060820;-12.69999981;0.00000000;0.00000000;20.76199913;2.00000000;
3172458;45.6;32.6;0;0;0;-247.6;0;0;0;0;0;0;0.0281;0.0001;1.2908;0.0048;106353;109537;310.543;0;0;-0.001;0;3172381;0.0281;0.0001;1.2908;0.0048;8.554;2289.18;0;0;0;660.28;680.048;1;3172427;0;0;0;0;0;0;0;0;0;3170754;37.34954390;-121.93060820;-12.69999981;0.00000000;0.00000000;20.76199913;2.00000000;
3172518;45.5;32.6;0;0;0;-263.1;0;0;0;0;0;0;0.0281;0.0001;1.2908;0.0048;106353;109537;310.611;0;0;0;0;3172461;0.0281;0.0001;1.2908;0.0048;9.161;2451.53;0;0;0;660.28;680.048;1;3172427;0;0;0;0;0;0;0;0;0;3170754;37.34954390;-121.93060820;-12.69999981;0.00000000;0.00000000;20.76199913;2.00000000;
3172609;46.4;32.6;0;0;0;-261.1;0;0;0;0;0;0;0.0281;0.0001;1.2908;0.0048;106353;109537;310.832;0;0;0;0;3172576;0.0281;0.0001;1.2908;0.0048;8.636;2311.19;0;0;0;660.28;680.048;1;3172547;0;0;0;0;0;0;0;0;0;3170754;37.34954390;-121.93060820;-12.69999981;0.00000000;0.00000000;20.76199913;2.00000000;
3172708;45.4;32.3;0;0;0;-205.2;0;0;0;0;0;-0.001;0.0281;0.0001;1.2908;0.0048;106353;109537;310.641;0;0;0;0;3172668;0.0281;0.0001;1.2908;0.0048;9.085;2431.3;0;0;0;660.28;680.048;1;3172681;0;0;0;0;0;0;0;0;0;3170754;37.34954390;-121.93060820;-12.69999981;0.00000000;0.00000000;20.76199913;2.00000000;
3172820;45.5;31.7;0;0;0;-72.3;2.67;0.01;0.13;3.05;-39;0.015;0.0281;0.0001;1.2908;0.0048;106352;109546;263.072;0;0;-0.065;0.103;3172753;0.0281;0.0001;1.2908;0.0048;8.727;2335.48;0;-1.75;-0.02;660.274;680.103;1;3172764;0;0;0;0;0;0;0;0;0;3170754;37.34954390;-121.93060820;-12.69999981;0.00000000;0.00000000;20.76199913;2.00000000;
3172883;45.5;31.7;0;0;0;-67;8.13;0.05;-0.22;8.16;-93;0.01;0.0281;0.0001;1.2908;0.0048;106351;109553;216.054;0;0;-0.1;0.201;3172820;0.0281;0.0001;1.2908;0.0048;8.719;2333.27;0.04;7.74;-0.024;660.274;680.103;1;3172859;0;0;0;0;0;0;0;0;0;3170754;37.34954390;-121.93060820;-12.69999981;0.00000000;0.00000000;20.76199913;2.00000000;
3172968;45.5;31.7;0;0;0;-68.7;13.89;0.17;0.13;13.96;-121;0.017;0.0281;0.0001;1.291;0.0048;106350;109558;148.724;0;0;-0.133;0.387;3172919;0.0281;0.0001;1.2908;0.0048;8.612;2304.58;0.08;9.28;-0.057;660.268;680.147;1;3172859;0;0;0;0;0;0;0;0;0;3170754;37.34954390;-121.93060820;-12.69999981;0.00000000;0.00000000;20.76199913;2.00000000;
3173075;45.5;31.6;0;0;0;-67.2;14.72;0.18;-0.11;14.71;-141;0.017;0.0281;0.0001;1.2912;0.0048;106349;109565;67.3897;0;0;-0.092;0.385;3173023;0.0281;0.0001;1.2911;0.0048;8.677;2322.22;0.17;14.76;-0.086;660.255;680.221;1;3172997;0;0;0;0;0;0;0;0;0;3170754;37.34954390;-121.93060820;-12.69999981;0.00000000;0.00000000;20.76199913;2.00000000;
3173150;46.2;31.6;0;0;0;-68.3;15.37;0.19;0.01;15.37;-149;0.017;0.0281;0.0001;1.2914;0.0048;106347;109569;344.245;0;0;-0.166;0.397;3173125;0.0281;0.0001;1.2914;0.0048;8.595;2300.18;0.19;14.91;-0.098;660.249;680.228;1;3173075;0;0;0;0;0;0;0;0;0;3175000;37.34959081;-121.93054110;-2.10314941;0.00000000;0.00000000;4.39398289;6.65260029;
3173248;45.5;31.7;0;0;0;-88.3;17.8;0.28;0.06;17.85;-151;0.019;0.0281;0.0001;1.2916;0.0048;106346;109572;288.64;0;0;-0.128;0.486;3173125;0.0281;0.0001;1.2914;0.0048;8.595;2300.18;0.19;14.91;-0.098;660.249;680.228;1;3173151;0;0;0;0;0;0;0;0;0;3175000;37.34959081;-121.93054110;-2.10314941;0.00000000;0.00000000;4.39398289;6.65260029;
3173302;45.6;31.7;0;0;0;-67.3;20.5;0.36;-0.08;20.52;-168;0.022;0.0281;0.0001;1.2921;0.0048;106345;109573;196.359;0;0;-0.134;0.547;3173278;0.0281;0.0001;1.2916;0.0048;8.612;2304.58;0.35;19.66;-0.094;660.237;680.265;1;3173278;0;0;0;0;0;0;0;0;0;3175000;37.34959081;-121.93054110;-2.10314941;0.00000000;0.00000000;4.39398289;6.65260029;
3173363;45.6;31.7;0;0;0;-68.6;21.07;0.39;0.1;21.06;-163;0.021;0.0281;0.0001;1.2924;0.0048;106344;109576;139.657;0;0;-0.182;0.576;3173332;0.0281;0.0001;1.2922;0.0048;8.595;2300.18;0.39;21.34;-0.098;660.224;680.29;1;3173332;0;0;0;0;0;0;0;0;0;3175000;37.34959081;-121.93054110;-2.10314941;0.00000000;0.00000000;4.39398289;6.65260029;
3173429;45.5;31.6;0;0;0;-67.3;21.15;0.38;-0.16;21.15;-173;0.021;0.0282;0.0001;1.2927;0.0048;106343;109579;75.8694;0;0;-0.124;0.561;3173332;0.0281;0.0001;1.2922;0.0048;8.595;2300.18;0.39;21.34;-0.098;660.224;680.29;1;3173332;0;0;0;0;0;0;0;0;0;3175000;37.34959081;-121.93054110;-2.10314941;0.00000000;0.00000000;4.39398289;6.65260029;
3173517;45.5;31.6;0;0;0;-67.4;24.73;0.53;0.06;24.8;-193;0.027;0.0282;0.0001;1.2933;0.0048;106341;109581;328.052;0;0;-0.202;0.656;3173436;0.0282;0.0001;1.2927;0.0048;8.595;2300.18;0.39;20.47;-0.107;660.218;680.308;1;3173454;0;0;0;0;0;0;0;0;0;3175000;37.34959081;-121.93054110;-2.10314941;0.00000000;0.00000000;4.39398289;6.65260029;
3173570;46.1;31.7;0;0;0;-69.1;26.66;0.63;0.05;26.63;-186;0.025;0.0282;0.0001;1.2938;0.0048;106340;109582;265.333;0;0;-0.17;0.726;3173518;0.0282;0.0001;1.2933;0.0048;8.96;2397.72;0.65;27.29;-0.12;660.205;680.321;1;3173545;0;0;0;0;0;0;0;0;0;3175000;37.34959081;-121.93054110;-2.10314941;0.00000000;0.00000000;4.39398289;6.65260029;
3173640;45.6;31.7;0;0;0;-67.1;25.57;0.57;-0.06;25.57;-187;0.026;0.0282;0.0001;1.2941;0.0048;106339;109583;197.8;0;0;-0.153;0.69;3173589;0.0282;0.0001;1.2938;0.0048;8.752;2342.12;0.57;24.48;-0.114;660.199;680.327;1;3173545;0;0;0;0;0;0;0;0;0;3175000;37.34959081;-121.93054110;-2.10314941;0.00000000;0.00000000;4.39398289;6.65260029;
3173756;45.6;31.6;0;0;0;-66.8;25.97;0.6;0.05;25.98;-182;0.028;0.0282;0.0001;1.2948;0.0048;106337;109591;100.708;0;0;-0.198;0.709;3173670;0.0282;0.0001;1.2944;0.0048;8.777;2348.77;0.59;25.13;-0.11;660.187;680.364;1;3173658;0;0;0;0;0;0;0;0;0;3175000;37.34959081;-121.93054110;-2.10314941;0.00000000;0.00000000;4.39398289;6.65260029;
3173847;45.6;31.7;0;0;0;-67.3;27.16;0.64;-0.04;27.17;-200;0.029;0.0282;0.0001;1.2958;0.0048;106335;109595;311.779;0;0;-0.174;0.723;3173763;0.0282;0.0001;1.2948;0.0048;8.554;2289.18;0.65;25.81;-0.113;660.181;680.383;1;3173782;0;0;0;0;0;0;0;0;0;3175000;37.34959081;-121.93054110;-2.10314941;0.00000000;0.00000000;4.39398289;6.65260029;
3173944;45.5;31.7;0;0;0;-68;27.5;0.67;0.02;27.5;-192;0.029;0.0282;0.0001;1.2966;0.0048;106333;109603;211.69;0;0;-0.191;0.749;3173865;0.0282;0.0001;1.2958;0.0048;8.694;2326.64;0.69;26.59;-0.124;660.168;680.408;1;3173876;0;0;0;0;0;0;0;0;0;3175000;37.34959081;-121.93054110;-2.10314941;0.00000000;0.00000000;4.39398289;6.65260029;
3174053;45.5;31.8;0;0;0;-87.7;26.75;0.74;0.32;26.8;-65;0.059;0.0283;0.0001;1.2977;0.0048;106335;109609;311.759;0;0;0.205;0.886;3173945;0.0282;0.0001;1.2966;0.0048;8.768;2346.56;0.65;27.08;-0.119;660.156;680.457;1;3173963;0;0;0;0;0;0;0;0;0;3175000;37.34959081;-121.93054110;-2.10314941;0.00000000;0.00000000;4.39398289;6.65260029;
3174145;45.6;31.6;0;0;0;-68;26.99;0.6;-0.46;26.9;-182;0.028;0.0283;0.0001;1.2984;0.0048;106333;109613;181.52;0;0;-0.221;0.684;3174060;0.0283;0.0001;1.2977;0.0048;9.018;2413.37;0.85;34.54;-0.039;660.168;680.494;1;3174124;0;0;0;0;0;0;0;0;0;3176000;37.34959332;-121.93055770;-1.87091064;0.00000000;0.00000000;3.96108174;5.62361860;
3174234;45.7;31.6;0;0;0;-67.2;25.66;0.63;-0.14;25.66;146;0.022;0.0283;0.0001;1.2992;0.0048;106336;109618;8.84777;0;0;0.28;0.771;3174181;0.0283;0.0001;1.2984;0.0048;8.562;2291.38;0.67;24.78;-0.112;660.156;680.519;1;3174181;0;0;0;0;0;0;0;0;0;3176000;37.34959332;-121.93055770;-1.87091064;0.00000000;0.00000000;3.96108174;5.62361860;
3174301;45.5;31.7;0;0;0;-66.1;24.32;0.59;0.02;24.29;-147;0.029;0.0283;0.0001;1.2996;0.0048;106333;109623;219.945;0;0;-0.22;0.785;3174234;0.0283;0.0001;1.2992;0.0048;8.612;2304.58;0.47;24.08;0.091;660.174;680.55;1;3174257;0;0;0;0;0;0;0;0;0;3176000;37.34959332;-121.93055770;-1.87091064;0.00000000;0.00000000;3.96108174;5.62361860;
3174379;45.5;31.7;0;0;0;-68.7;22.05;0.43;0.26;22.03;-163;0.023;0.0283;0.0001;1.3001;0.0048;106332;109624;129.774;0;0;-0.138;0.603;3174359;0.0283;0.0001;1.2996;0.0048;8.843;2366.53;0.49;22.1;-0.09;660.156;680.581;1;3174359;0;0;0;0;0;0;0;0;0;3176000;37.34959332;-121.93055770;-1.87091064;0.00000000;0.00000000;3.96108174;5.62361860;
3174440;45.5;31.7;0;0;0;-67.9;19.62;0.33;-0.16;19.61;-169;0.019;0.0283;0.0001;1.3003;0.0048;106331;109633;66.6797;0;0;-0.105;0.521;3174359;0.0283;0.0001;1.2996;0.0048;8.843;2366.53;0.49;22.1;-0.09;660.156;680.581;1;3174359;0;0;0;0;0;0;0;0;0;3176000;37.34959332;-121.93055770;-1.87091064;0.00000000;0.00000000;3.96108174;5.62361860;
3174570;46;31.7;0;0;0;-75.6;14.79;0.18;-0.02;14.6;-167;0.008;0.0283;0.0001;1.3005;0.0048;106330;109636;8.25715;0;0;-0.164;0.359;3174448;0.0283;0.0001;1.3003;0.0048;8.644;2313.39;0.33;18.92;-0.104;660.143;680.644;1;3174470;0;0;0;0;0;0;0;0;0;3176000;37.34959332;-121.93055770;-1.87091064;0.00000000;0.00000000;3.96108174;5.62361860;
3174647;46.5;32.4;0;0;0;-214.4;0.53;0;-0.01;0.59;-37;0;0.0283;0.0001;1.3005;0.0048;106329;109649;326.779;0;0;0.015;-0.011;3174588;0.0283;0.0001;1.3005;0.0048;8.644;2313.39;0;0;-0.067;660.131;680.743;1;3174591;0;0;0;0;0;0;0;0;0;3176000;37.34959332;-121.93055770;-1.87091064;0.00000000;0.00000000;3.96108174;5.62361860;
3174746;45.8;32;0;0;0;-122.4;0.06;0;0.01;0.17;-32;0.001;0.0283;0.0001;1.3005;0.0048;106329;109649;316.292;0;0;-0.001;0.003;3174723;0.0283;0.0001;1.3005;0.0048;8.636;2311.19;0;0;-0.022;660.131;680.743;1;3174723;0;0;0;0;0;0;0;0;0;3176000;37.34959332;-121.93055770;-1.87091064;0.00000000;0.00000000;3.96108174;5.62361860;
3174800;45.7;31.7;0;0;0;-67.4;3.79;0.03;0.2;3.96;17;0.015;0.0283;0.0001;1.3005;0.0048;106329;109649;326.634;0;0;-0.037;0.216;3174768;0.0283;0.0001;1.3005;0.0048;8.653;2315.6;0.02;3.44;-0.024;660.131;680.743;1;3174769;0;0;0;0;0;0;0;0;0;3176000;37.34959332;-121.93055770;-1.87091064;0.00000000;0.00000000;3.96108174;5.62361860;
3174870;45.6;31.7;0;0;0;-67;10.7;0.1;-0.12;10.78;-80;0.015;0.0283;0.0001;1.3006;0.0048;106328;109654;275.332;0;0;-0.109;0.28;3174768;0.0283;0.0001;1.3005;0.0048;8.653;2315.6;0.02;3.44;-0.024;660.131;680.743;1;3174769;0;0;0;0;0;0;0;0;0;3176000;37.34959332;-121.93055770;-1.87091064;0.00000000;0.00000000;3.96108174;5.62361860;
3174960;45.4;31.7;0;0;0;-67.9;18.76;0.34;-0.19;18.84;146;0.03;0.0283;0.0001;1.301;0.0048;106331;109657;62.6564;0;0;0.081;0.583;3174876;0.0283;0.0001;1.3006;0.0048;8.554;2289.18;0.2;13.99;-0.05;660.125;680.774;1;3174896;0;0;0;0;0;0;0;0;0;3176000;37.34959332;-121.93055770;-1.87091064;0.00000000;0.00000000;3.96108174;5.62361860;
3175011;45.8;31.7;0;0;0;-68.2;24.86;0.81;0.62;24.86;47;0.104;0.0284;0.0001;1.3016;0.0048;106330;109662;13.3676;0;0;0.003;1.044;3174967;0.0283;0.0001;1.301;0.0048;8.653;2315.6;0.55;21.21;0.091;660.143;680.793;1;3174985;0;0;0;0;0;0;0;0;0;3176000;37.34959332;-121.93055770;-1.87091064;0.00000000;0.00000000;3.96108174;5.62361860;
3175081;45.7;31.7;0;0;0;-66.5;23.56;5.16;-1.29;23.58;4190;0.4;0.0284;0.0001;1.3046;0.0048;106368;109700;153.208;0;0;0.509;6.648;3175012;0.0284;0.0001;1.3016;0.0048;8.694;2326.64;2;21.42;0.043;660.137;680.824;1;3174985;0;0;0;0;0;0;0;0;0;3176000;37.34959332;-121.93055770;-1.87091064;0.00000000;0.00000000;3.96108174;5.62361860;
3175163;45.6;31.7;0;0;0;-67.2;16.24;7.37;-0.32;16.07;13241;0.639;0.0286;0.0001;1.3135;0.0048;106508;109840;255.784;0;0;1.419;14.668;3175133;0.0285;0.0001;1.3079;0.0048;8.885;2377.66;9.44;19.85;4.584;660.615;681.302;1;3175100;0;0;0;0;0;0;0;0;0;3177000;37.34958963;-121.93056115;-0.85937500;0.00000000;0.00000000;3.79009247;4.44633913;
3175234;46.5;32.5;0;0;0;-219;1.06;0.54;0.14;0.97;16147;0.591;0.0286;0.0001;1.3143;0.0048;106617;109949;321.487;0;0;1.384;16.277;3175133;0.0285;0.0001;1.3079;0.0048;8.885;2377.66;9.44;19.85;4.584;660.615;681.302;1;3175163;0;0;0;0;0;0;0;0;0;3177000;37.34958963;-121.93056115;-0.85937500;0.00000000;0.00000000;3.79009247;4.44633913;
3175308;45.3;32.9;0;0;0;-272.7;0;0;0;0;16449;0.532;0.0286;0.0001;1.3143;0.0048;106767;110099;317.701;0;0;1.125;14.861;3175241;0.0286;0.0001;1.3143;0.0048;8.57;2293.58;0;0;10.034;661.925;682.612;1;3175261;0;0;0;0;0;0;0;0;0;3177000;37.34958963;-121.93056115;-0.85937500;0.00000000;0.00000000;3.79009247;4.44633913;
3175396;45.5;32.7;0;0;0;-254.3;0;0;0;0;15292;0.476;0.0286;0.0001;1.3143;0.0048;106901;110233;76.05;0;0;0.897;13.34;3175334;0.0286;0.0001;1.3143;0.0048;8.926;2388.8;0;0;10.208;662.856;683.543;1;3175347;0;0;0;0;0;0;0;0;0;3177000;37.34958963;-121.93056115;-0.85937500;0.00000000;0.00000000;3.79009247;4.44633913;
3175483;46.1;32.9;0;0;0;-266.7;0;0;0;0;14284;0.442;0.0286;0.0001;1.3143;0.0048;106986;110318;146.4;0;0;0.733;12.142;3175445;0.0286;0.0001;1.3143;0.0048;8.62;2306.78;0;0;9.487;663.688;684.375;1;3175445;0;0;0;0;0;0;0;0;0;3177000;37.34958963;-121.93056115;-0.85937500;0.00000000;0.00000000;3.79009247;4.44633913;
3175565;45.5;32.8;0;0;0;-252.1;0;0;0;0;12846;0.396;0.0286;0.0001;1.3143;0.0048;107095;110427;223.334;0;0;0.595;11.005;3175445;0.0286;0.0001;1.3143;0.0048;8.62;2306.78;0;0;9.487;663.688;684.375;1;3175445;0;0;0;0;0;0;0;0;0;3177000;37.34958963;-121.93056115;-0.85937500;0.00000000;0.00000000;3.79009247;4.44633913;
3175672;45.5;32.9;0;0;0;-258.7;0;0;0;0;10982;0.332;0.0286;0.0001;1.3143;0.0048;107225;110557;86.4536;0;0;0.432;9.564;3175565;0.0286;0.0001;1.3143;0.0048;8.579;2295.78;0;0;7.97;664.893;685.579;1;3175578;0;0;0;0;0;0;0;0;0;3177000;37.34958963;-121.93056115;-0.85937500;0.00000000;0.00000000;3.79009247;4.44633913;
3175779;46.6;32.8;0;0;0;-251.9;0;0;0;0;9699;0.296;0.0286;0.0001;1.3143;0.0048;107308;110640;40.8309;0;0;0.311;8.215;3175739;0.0286;0.0001;1.3143;0.0048;9.018;2413.37;0;0;6.811;665.7;686.386;1;3175739;0;0;0;0;0;0;0;0;0;3177000;37.34958963;-121.93056115;-0.85937500;0.00000000;0.00000000;3.79009247;4.44633913;
3175849;46.6;32.8;0;0;0;-243.2;0;0;0;0;8490;0.253;0.0286;0.0001;1.3143;0.0048;107381;110713;91.0419;0;0;0.226;7.147;3175794;0.0286;0.0001;1.3143;0.0048;8.735;2337.7;0;0;5.762;666.37;687.057;1;3175794;0;0;0;0;0;0;0;0;0;3177000;37.34958963;-121.93056115;-0.85937500;0.00000000;0.00000000;3.79009247;4.44633913;
3175939;45.3;32.9;0;0;0;-271.6;0;0;0;0;7344;0.209;0.0286;0.0001;1.3143;0.0048;107445;110777;323.433;0;0;0.163;6.14;3175878;0.0286;0.0001;1.3143;0.0048;9.102;2435.79;0;0;5.031;666.799;687.485;1;3175894;0;0;0;0;0;0;0;0;0;3177000;37.34958963;-121.93056115;-0.85937500;0.00000000;0.00000000;3.79009247;4.44633913;
3176029;46.1;32.6;0;0;0;-199.8;0;0;0;0;6283;0.188;0.0286;0.0001;1.3143;0.0048;107498;110830;284.223;0;0;0.119;5.19;3175965;0.0286;0.0001;1.3143;0.0048;8.985;2404.42;0;0;4.554;667.06;687.746;1;3176012;0;0;0;0;0;0;0;0;0;3177000;37.34958963;-121.93056115;-0.85937500;0.00000000;0.00000000;3.79009247;4.44633913;
3176098;45.5;31.9;0;0;0;-68.9;1.44;0.22;0.04;1.5;5629;0.176;0.0286;0.0001;1.3145;0.0048;107530;110862;16.4853;0;0;0.044;4.719;3176046;0.0286;0.0001;1.3143;0.0048;8.57;2293.58;0;0;3.89;667.395;688.081;1;3176012;0;0;0;0;0;0;0;0;0;3177000;37.34958963;-121.93056115;-0.85937500;0.00000000;0.00000000;3.79009247;4.44633913;
3176209;45.5;31.9;0;0;0;-68.2;4.46;0.75;-0.1;4.49;5544;0.223;0.0286;0.0001;1.3153;0.0048;107578;110910;52.4657;0;0;0.111;5.019;3176151;0.0286;0.0001;1.3146;0.0048;8.885;2377.66;0.35;2.57;3.386;667.68;688.367;1;3176129;0;0;0;0;0;0;0;0;0;3178000;37.34958384;-121.93056260;0.81213379;0.00000000;0.00000000;3.79009247;3.70773721;
3176339;45.5;31.9;0;0;0;-67.7;8.02;2.05;-0.13;8.02;8410;0.367;0.0287;0.0001;1.3183;0.0048;107678;111010;277.612;0;0;0.416;7.852;3176288;0.0287;0.0001;1.3166;0.0048;8.636;2311.19;2.42;7.71;4.149;668.158;688.845;1;3176282;0;0;0;0;0;0;0;0;0;3178000;37.34958384;-121.93056260;0.81213379;0.00000000;0.00000000;3.79009247;3.70773721;
3176449;45.6;32.5;0;0;0;-183.7;2.74;0.89;0.02;2.7;10591;0.354;0.0287;0.0001;1.3198;0.0048;107812;111144;53.4325;0;0;0.517;9.96;3176427;0.0287;0.0001;1.3198;0.0048;9.102;2435.79;0;0;6.576;669.332;690.018;1;3176427;0;0;0;0;0;0;0;0;0;3178000;37.34958384;-121.93056260;0.81213379;0.00000000;0.00000000;3.79009247;3.70773721;
3176544;45.5;32.9;0;0;0;-272.1;0;0;0;0;9683;0.296;0.0287;0.0001;1.3198;0.0048;107926;111258;10.264;0;0;0.336;8.528;3176525;0.0287;0.0001;1.3198;0.0048;8.727;2335.48;0;0;6.209;669.878;690.564;1;3176525;0;0;0;0;0;0;0;0;0;3178000;37.34958384;-121.93056260;0.81213379;0.00000000;0.00000000;3.79009247;3.70773721;
3176598;45.5;32.8;0;0;0;-251.6;0;0;0;0;8946;0.272;0.0287;0.0001;1.3198;0.0048;107977;111309;219.856;0;0;0.253;7.436;3176525;0.0287;0.0001;1.3198;0.0048;8.727;2335.48;0;0;6.209;669.878;690.564;1;3176525;0;0;0;0;0;0;0;0;0;3178000;37.34958384;-121.93056260;0.81213379;0.00000000;0.00000000;3.79009247;3.70773721;
3176782;45.7;31.8;0;0;0;-68.1;0.65;0.12;-0.07;0.66;7132;0.232;0.0288;0.0001;1.3201;0.0048;108085;111417;212.91;0;0;0.157;6.382;3176639;0.0287;0.0001;1.3198;0.0048;9.169;2453.78;0;0;5.55;670.369;691.055;1;3176731;0;0;0;0;0;0;0;0;0;3178000;37.34958384;-121.93056260;0.81213379;0.00000000;0.00000000;3.79009247;3.70773721;
3176875;45.6;31.9;0;0;0;-68.3;4.19;0.89;-0.05;4.21;7159;0.272;0.0288;0.0001;1.3214;0.0048;108168;111500;167.968;0;0;0.203;6.456;3176800;0.0288;0.0001;1.3201;0.0048;8.562;2291.38;-0.36;2.01;4.424;671.033;691.719;1;3176806;0;0;0;0;0;0;0;0;0;3178000;37.34958384;-121.93056260;0.81213379;0.00000000;0.00000000;3.79009247;3.70773721;
3176967;45.8;31.8;0;0;0;-67.8;4.64;1.15;0;4.62;8124;0.304;0.0288;0.0001;1.3227;0.0048;108243;111575;355.839;0;0;0.316;7.679;3176904;0.0288;0.0001;1.3214;0.0048;8.653;2315.6;1.65;4.58;4.448;671.554;692.241;1;3176916;0;0;0;0;0;0;0;0;0;3178000;37.34958384;-121.93056260;0.81213379;0.00000000;0.00000000;3.79009247;3.70773721;
3177033;46.4;32.6;0;0;0;-214.5;0.9;0.23;-0.03;0.89;8382;0.27;0.0288;0.0001;1.3229;0.0048;108295;111627;190.137;0;0;0.259;7.66;3176967;0.0288;0.0001;1.3227;0.0048;9.135;2444.78;0.84;2.74;5.046;672.02;692.706;1;3176990;0;0;0;0;0;0;0;0;0;3178000;37.34958384;-121.93056260;0.81213379;0.00000000;0.00000000;3.79009247;3.70773721;
3177113;46.6;33;0;0;0;-273.1;0;0;0;0;7779;0.233;0.0288;0.0001;1.3229;0.0048;108364;111696;3.21403;0;0;0.194;6.702;3177051;0.0288;0.0001;1.3229;0.0048;9.085;2431.3;0;0;5.203;672.337;693.023;1;3177051;0;0;0;0;0;0;0;0;0;3178000;37.34958384;-121.93056260;0.81213379;0.00000000;0.00000000;3.79009247;3.70773721;
3177239;45.5;33;0;0;0;-272.8;0;0;0;0;7153;0.207;0.0288;0.0001;1.3229;0.0048;108404;111736;252.76;0;0;0.15;5.88;3177145;0.0288;0.0001;1.3229;0.0048;8.901;2382.11;0;0;4.825;672.765;693.451;1;3177224;0;0;0;0;0;0;0;0;0;3179000;37.34957930;-121.93056579;0.15756226;0.00000000;0.00000000;3.79009247;3.21857095;
3177302;45.6;31.9;0;0;0;-78.9;0.32;0.05;0.16;0.34;5824;0.18;0.0288;0.0001;1.323;0.0048;108472;111804;39.1124;0;0;0.087;5.018;3177271;0.0288;0.0001;1.3229;0.0048;8.644;2313.39;0.03;-1.47;3.821;673.342;694.029;1;3177224;0;0;0;0;0;0;0;0;0;3179000;37.34957930;-121.93056579;0.15756226;0.00000000;0.00000000;3.79009247;3.21857095;
3177379;45.6;31.9;0;0;0;-67.1;5.49;0.99;-0.11;5.55;5874;0.245;0.0288;0.0001;1.324;0.0048;108523;111855;221.81;0;0;0.151;5.324;3177359;0.0288;0.0001;1.3235;0.0048;8.694;2326.64;1.47;6.95;3.472;673.634;694.321;1;3177318;0;0;0;0;0;0;0;0;0;3179000;37.34957930;-121.93056579;0.15756226;0.00000000;0.00000000;3.79009247;3.21857095;
3177442;45.6;31.9;0;0;0;-67.5;8.03;1.96;-0.11;8.02;7217;0.322;0.0289;0.0001;1.3254;0.0048;108571;111903;228.298;0;0;0.366;7.474;3177359;0.0288;0.0001;1.3235;0.0048;8.694;2326.64;1.47;6.95;3.472;673.634;694.321;1;3177390;0;0;0;0;0;0;0;0;0;3179000;37.34957930;-121.93056579;0.15756226;0.00000000;0.00000000;3.79009247;3.21857095;
3177509;45.6;31.9;0;0;0;-67;8.18;2.53;-0.21;8.19;9050;0.396;0.0289;0.0001;1.3273;0.0048;108632;111964;265.306;0;0;0.587;9.468;3177442;0.0289;0.0001;1.3254;0.0048;8.661;2317.81;3.01;9.55;4.491;674.056;694.743;1;3177467;0;0;0;0;0;0;0;0;0;3179000;37.34957930;-121.93056579;0.15756226;0.00000000;0.00000000;3.79009247;3.21857095;
3177588;45.6;32.7;0;0;0;-202.7;4.24;1.51;0.03;4.17;11410;0.407;0.029;0.0001;1.3293;0.0048;108741;112073;310.799;0;0;0.682;11.053;3177527;0.0289;0.0001;1.3273;0.0048;9.01;2411.13;1.69;6.42;5.631;674.435;695.121;1;3177538;0;0;0;0;0;0;0;0;0;3179000;37.34957930;-121.93056579;0.15756226;0.00000000;0.00000000;3.79009247;3.21857095;
3177685;45.5;33;0;0;0;-263.8;0;0;0;0;11302;0.356;0.029;0.0001;1.3293;0.0048;108843;112175;315.368;0;0;0.481;10.065;3177606;0.029;0.0001;1.3293;0.0048;8.893;2379.88;0;0;7.088;675.106;695.792;1;3177617;0;0;0;0;0;0;0;0;0;3179000;37.34957930;-121.93056579;0.15756226;0.00000000;0.00000000;3.79009247;3.21857095;
3177767;46.3;32.9;0;0;0;-252.2;0;0;0;0;10307;0.321;0.029;0.0001;1.3293;0.0048;108932;112264;290.102;0;0;0.368;8.858;3177742;0.029;0.0001;1.3293;0.0048;8.562;2291.38;0;0;7.013;675.745;696.431;1;3177755;0;0;0;0;0;0;0;0;0;3179000;37.34957930;-121.93056579;0.15756226;0.00000000;0.00000000;3.79009247;3.21857095;
3177833;46.4;32.8;0;0;0;-233.9;0;0;0;0;9528;0.295;0.029;0.0001;1.3293;0.0048;108986;112318;291.123;0;0;0.287;7.919;3177811;0.029;0.0001;1.3293;0.0048;8.562;2291.38;0;0;6.161;676.459;697.145;1;3177755;0;0;0;0;0;0;0;0;0;3179000;37.34957930;-121.93056579;0.15756226;0.00000000;0.00000000;3.79009247;3.21857095;
3177917;45.5;32.1;0;0;0;-97.9;0.22;0.05;0.02;0.25;8355;0.258;0.029;0.0001;1.3293;0.0048;109058;112390;275.063;0;0;0.208;7.099;3177876;0.029;0.0001;1.3293;0.0048;9.203;2462.79;0;0;5.644;676.8;697.487;1;3177868;0;0;0;0;0;0;0;0;0;3179000;37.34957930;-121.93056579;0.15756226;0.00000000;0.00000000;3.79009247;3.21857095;
3178049;45.5;31.9;0;0;0;-67.7;5.43;1.39;-0.16;5.47;8507;0.345;0.029;0.0001;1.3314;0.0048;109157;112489;100.424;0;0;0.328;7.601;3177954;0.029;0.0001;1.3296;0.0048;8.876;2375.43;0.57;3.78;4.997;677.21;697.897;1;3177954;0;0;0;0;0;0;0;0;0;3179000;37.34957930;-121.93056579;0.15756226;0.00000000;0.00000000;3.79009247;3.21857095;
3178132;45.9;31.9;0;0;0;-67.4;7.15;2.39;-0.07;7.12;10673;0.429;0.0291;0.0001;1.3342;0.0048;109257;112589;333.169;0;0;0.663;10.341;3178049;0.029;0.0001;1.3314;0.0048;8.81;2357.65;2.63;7.35;5.289;677.695;698.381;1;3178070;0;0;0;0;0;0;0;0;0;3180000;37.34958239;-121.93057162;-0.81625366;0.00000000;0.00000000;3.79009247;3.11996698;
3178200;45.4;32.7;0;0;0;-202.3;1.07;0.37;0.11;1.02;11484;0.392;0.0291;0.0001;1.3344;0.0048;109329;112661;302.646;0;0;0.58;10.788;3178157;0.0291;0.0001;1.3342;0.0048;8.595;2300.18;3.47;6.14;6.636;678.315;699.002;1;3178169;0;0;0;0;0;0;0;0;0;3180000;37.34958239;-121.93057162;-0.81625366;0.00000000;0.00000000;3.79009247;3.11996698;
3178281;46;33.1;0;0;0;-272.4;0;0;0;0;11000;0.343;0.0291;0.0001;1.3344;0.0048;109428;112760;121.932;0;0;0.44;9.669;3178219;0.0291;0.0001;1.3344;0.0048;8.636;2311.19;0;0;7.111;678.973;699.66;1;3178219;0;0;0;0;0;0;0;0;0;3180000;37.34958239;-121.93057162;-0.81625366;0.00000000;0.00000000;3.79009247;3.11996698;
3178354;46.5;33;0;0;0;-272.4;0;0;0;0;10306;0.315;0.0291;0.0001;1.3344;0.0048;109486;112818;58.4269;0;0;0.351;8.687;3178288;0.0291;0.0001;1.3344;0.0048;9.169;2453.78;0;0;6.825;679.371;700.057;1;3178308;0;0;0;0;0;0;0;0;0;3180000;37.34958239;-121.93057162;-0.81625366;0.00000000;0.00000000;3.79009247;3.11996698;
3178426;46.5;33;0;0;0;-263.8;0;0;0;0;9138;0.27;0.0291;0.0001;1.3344;0.0048;109566;112898;141.812;0;0;0.272;7.757;3178354;0.0291;0.0001;1.3344;0.0048;9.001;2408.9;0;0;6.392;679.737;700.423;1;3178369;0;0;0;0;0;0;0;0;0;3180000;37.34958239;-121.93057162;-0.81625366;0.00000000;0.00000000;3.79009247;3.11996698;
3178501;45.6;33.1;0;0;0;-272.5;0;0;0;0;8353;0.243;0.0291;0.0001;1.3344;0.0048;109614;112946;129.163;0;0;0.203;6.892;3178438;0.0291;0.0001;1.3344;0.0048;8.777;2348.77;0;0;5.669;680.228;700.914;1;3178468;0;0;0;0;0;0;0;0;0;3180000;37.34958239;-121.93057162;-0.81625366;0.00000000;0.00000000;3.79009247;3.11996698;
3178555;45.6;31.9;0;0;0;-68.9;0.87;0.17;0;0.88;7619;0.239;0.0291;0.0001;1.3346;0.0048;109655;112987;99.6331;0;0;0.134;6.444;3178518;0.0291;0.0001;1.3345;0.0048;8.661;2317.81;0.9;1.53;4.965;680.65;701.336;1;3178468;0;0;0;0;0;0;0;0;0;3180000;37.34958239;-121.93057162;-0.81625366;0.00000000;0.00000000;3.79009247;3.11996698;
3178623;45.5;31.9;0;0;0;-67;2.37;0.47;0.05;2.41;7070;0.231;0.0291;0.0001;1.335;0.0048;109696;113028;11.8587;0;0;0.141;6.129;3178518;0.0291;0.0001;1.3345;0.0048;8.661;2317.81;0.9;1.53;4.965;680.65;701.336;1;3178555;0;0;0;0;0;0;0;0;0;3180000;37.34958239;-121.93057162;-0.81625366;0.00000000;0.00000000;3.79009247;3.11996698;
3178686;45.5;32;0;0;0;-68.5;2.6;0.51;-0.05;2.6;6846;0.235;0.0291;0.0001;1.3353;0.0048;109735;113067;216.386;0;0;0.142;6.129;3178643;0.0291;0.0001;1.335;0.0048;8.71;2331.06;-0.42;1.78;4.388;681.035;701.721;1;3178643;0;0;0;0;0;0;0;0;0;3180000;37.34958239;-121.93057162;-0.81625366;0.00000000;0.00000000;3.79009247;3.11996698;
3178764;45.4;32;0;0;0;-67.3;3.81;0.79;-0.03;3.83;6929;0.253;0.0291;0.0001;1.3362;0.0048;109796;113128;297.158;0;0;0.185;6.345;3178743;0.0291;0.0001;1.3358;0.0048;8.636;2311.19;1.97;4.22;4.235;681.531;702.218;1;3178743;0;0;0;0;0;0;0;0;0;3180000;37.34958239;-121.93057162;-0.81625366;0.00000000;0.00000000;3.79009247;3.11996698;
3178825;45.8;32;0;0;0;-89;5.46;1.29;-0.09;5.45;7507;0.292;0.0291;0.0001;1.3371;0.0048;109844;113176;275.609;0;0;0.295;7.231;3178743;0.0291;0.0001;1.3358;0.0048;8.636;2311.19;1.97;4.22;4.235;681.531;702.218;1;3178743;0;0;0;0;0;0;0;0;0;3180000;37.34958239;-121.93057162;-0.81625366;0.00000000;0.00000000;3.79009247;3.11996698;
3178879;45.4;32.4;0;0;0;-161.1;3.16;0.8;0.07;3.12;8169;0.281;0.0291;0.0001;1.3378;0.0048;109896;113228;120.726;0;0;0.297;7.851;3178832;0.0291;0.0001;1.3371;0.0048;8.653;2315.6;1.99;6.19;4.665;681.96;702.646;1;3178852;0;0;0;0;0;0;0;0;0;3180000;37.34958239;-121.93057162;-0.81625366;0.00000000;0.00000000;3.79009247;3.11996698;
3178978;46.4;32.7;0;0;0;-196.1;0;0;0;0;7935;0.243;0.0291;0.0001;1.3378;0.0048;109966;113298;16.6737;0;0;0.213;6.953;3178898;0.0291;0.0001;1.3378;0.0048;9.27;2480.84;0;0;5.073;682.276;702.963;1;3178939;0;0;0;0;0;0;0;0;0;3180000;37.34958239;-121.93057162;-0.81625366;0.00000000;0.00000000;3.79009247;3.11996698;
3179032;45.8;32.9;0;0;0;-248.7;0;0;0;0;7367;0.216;0.0291;0.0001;1.3378;0.0048;110009;113341;79.3917;0;0;0.158;6.13;3178984;0.0291;0.0001;1.3378;0.0048;8.521;2280.4;0;0;4.918;682.717;703.403;1;3178939;0;0;0;0;0;0;0;0;0;3180000;37.34958239;-121.93057162;-0.81625366;0.00000000;0.00000000;3.79009247;3.11996698;
3179095;46.1;33;0;0;0;-264;0;0;0;0;6725;0.197;0.0291;0.0001;1.3378;0.0048;110047;113379;184.228;0;0;0.127;5.493;3179039;0.0291;0.0001;1.3378;0.0048;8.802;2355.43;0;0;4.569;682.978;703.664;1;3179063;0;0;0;0;0;0;0;0;0;3180000;37.34958239;-121.93057162;-0.81625366;0.00000000;0.00000000;3.79009247;3.11996698;
3179185;46;32.8;0;0;0;-224.2;0;0;0;0;5741;0.161;0.0291;0.0001;1.3378;0.0048;110096;113428;243.763;0;0;0.096;4.729;3179124;0.0291;0.0001;1.3378;0.0048;8.603;2302.38;0;0;4.17;683.214;703.9;1;3179136;0;0;0;0;0;0;0;0;0;3181000;37.34958287;-121.93057311;-0.47042847;0.00000000;0.00000000;3.79009247;2.91446614;
3179269;45.5;32;0;0;0;-66.8;0.62;0.07;0.06;0.63;4694;0.133;0.0291;0.0001;1.3379;0.0048;110135;113467;107.799;0;0;0.022;3.971;3179247;0.0291;0.0001;1.3378;0.0048;9.262;2478.59;0;0;3.561;683.518;704.204;1;3179255;0;0;0;0;0;0;0;0;0;3181000;37.34958287;-121.93057311;-0.47042847;0.00000000;0.00000000;3.79009247;2.91446614;
3179376;45.5;32;0;0;0;-67;3.89;0.48;-0.08;3.95;4201;0.161;0.0292;0.0001;1.3384;0.0048;110171;113503;90.2829;0;0;0.045;3.672;3179314;0.0291;0.0001;1.338;0.0048;8.62;2306.78;0.8;3.85;2.702;683.835;704.521;1;3179314;0;0;0;0;0;0;0;0;0;3181000;37.34958287;-121.93057311;-0.47042847;0.00000000;0.00000000;3.79009247;2.91446614;
3179459;45.7;31.9;0;0;0;-67.8;9.99;2.1;-0.25;10.06;6178;0.329;0.0292;0.0001;1.3407;0.0048;110228;113560;266.329;0;0;0.296;6.118;3179385;0.0292;0.0001;1.3384;0.0048;8.943;2393.26;0.37;5.01;2.611;683.984;704.67;1;3179409;0;0;0;0;0;0;0;0;0;3181000;37.34958287;-121.93057311;-0.47042847;0.00000000;0.00000000;3.79009247;2.91446614;
3179541;45.5;32;0;0;0;-66.5;10.19;3.51;-0.08;10.08;10648;0.46;0.0293;0.0001;1.3448;0.0048;110333;113665;119.688;0;0;0.832;10.937;3179479;0.0292;0.0001;1.3407;0.0048;8.677;2322.22;3.94;13.58;3.854;684.344;705.03;1;3179479;0;0;0;0;0;0;0;0;0;3181000;37.34958287;-121.93057311;-0.47042847;0.00000000;0.00000000;3.79009247;2.91446614;
3179613;45.8;32.8;0;0;0;-218.3;0.14;0.04;0.13;0.1;11928;0.422;0.0293;0.0001;1.3448;0.0048;110410;113742;48.7406;0;0;0.627;11.407;3179542;0.0293;0.0001;1.3448;0.0048;8.843;2366.53;-0.27;1.47;6.627;684.996;705.682;1;3179566;0;0;0;0;0;0;0;0;0;3181000;37.34958287;-121.93057311;-0.47042847;0.00000000;0.00000000;3.79009247;2.91446614;
3179694;45.4;33.1;0;0;0;-272.8;0;0;0;0;11633;0.364;0.0293;0.0001;1.3448;0.0048;110515;113847;199.317;0;0;0.512;10.297;3179632;0.0293;0.0001;1.3448;0.0048;9.043;2420.09;0;0;7.408;685.474;706.16;1;3179632;0;0;0;0;0;0;0;0;0;3181000;37.34958287;-121.93057311;-0.47042847;0.00000000;0.00000000;3.79009247;2.91446614;
3179759;45.4;33.1;0;0;0;-272.7;0;0;0;0;10958;0.335;0.0293;0.0001;1.3448;0.0048;110578;113910;20.5122;0;0;0.403;9.284;3179694;0.0293;0.0001;1.3448;0.0048;8.653;2315.6;0;0;7.219;686.126;706.812;1;3179758;0;0;0;0;0;0;0;0;0;3181000;37.34958287;-121.93057311;-0.47042847;0.00000000;0.00000000;3.79009247;2.91446614;
3179840;45.7;33.1;0;0;0;-272.6;0;0;0;0;9780;0.297;0.0293;0.0001;1.3448;0.0048;110663;113995;88.7321;0;0;0.32;8.33;3179792;0.0293;0.0001;1.3448;0.0048;8.835;2364.31;0;0;6.799;686.51;707.197;1;3179758;0;0;0;0;0;0;0;0;0;3181000;37.34958287;-121.93057311;-0.47042847;0.00000000;0.00000000;3.79009247;2.91446614;
3179989;45.8;32;0;0;0;-67.6;0.64;0.15;0.21;0.66;8573;0.268;0.0293;0.0001;1.3451;0.0048;110737;114069;188.795;0;0;0.216;7.376;3179847;0.0293;0.0001;1.3448;0.0048;9.169;2453.78;0;0;6.066;687.044;707.731;1;3179868;0;0;0;0;0;0;0;0;0;3181000;37.34958287;-121.93057311;-0.47042847;0.00000000;0.00000000;3.79009247;2.91446614;
3180139;45.7;32;0;0;0;-67.1;4.59;1.2;-0.08;4.61;8979;0.357;0.0294;0.0001;1.3482;0.0048;110913;114245;332.359;0;0;0.327;7.752;3179990;0.0293;0.0001;1.3451;0.0048;8.744;2339.91;-0.02;2.05;5.318;687.498;708.184;1;3180036;0;0;0;0;0;0;0;0;0;3182000;37.34958036;-121.93056933;0.42929077;0.00000000;0.00000000;3.79009247;2.73956156;
3180257;45.6;32;0;0;0;-69.4;8.14;2.91;-0.19;8.13;11346;0.463;0.0294;0.0001;1.3512;0.0048;111019;114351;204.762;0;0;0.771;10.987;3180140;0.0294;0.0001;1.3482;0.0048;8.636;2311.19;2.92;8.65;5.58;688.596;709.283;1;3180180;0;0;0;0;0;0;0;0;0;3182000;37.34958036;-121.93056933;0.42929077;0.00000000;0.00000000;3.79009247;2.73956156;
3180322;46.4;33;0;0;0;-254.4;1.54;0.6;0.06;1.48;12668;0.418;0.0295;0.0001;1.3522;0.0048;111137;114469;78.5982;0;0;0.723;11.855;3180258;0.0294;0.0001;1.3516;0.0048;8.901;2382.11;1.81;5.7;7.055;689.255;709.941;1;3180302;0;0;0;0;0;0;0;0;0;3182000;37.34958036;-121.93056933;0.42929077;0.00000000;0.00000000;3.79009247;2.73956156;
3180410;45.7;32.9;0;0;0;-225.7;0;0;0;0;12000;0.382;0.0295;0.0001;1.3522;0.0048;111244;114576;35.1697;0;0;0.537;10.511;3180359;0.0295;0.0001;1.3522;0.0048;8.603;2302.38;0;0;7.863;689.987;710.673;1;3180359;0;0;0;0;0;0;0;0;0;3182000;37.34958036;-121.93056933;0.42929077;0.00000000;0.00000000;3.79009247;2.73956156;
3180504;45.6;32;0;0;0;-67.2;1.8;0.59;0.01;1.85;11357;0.377;0.0295;0.0001;1.3526;0.0048;111309;114641;304.472;0;0;0.441;9.917;3180418;0.0295;0.0001;1.3522;0.0048;9.127;2442.53;0;0;7.445;690.651;711.338;1;3180438;0;0;0;0;0;0;0;0;0;3182000;37.34958036;-121.93056933;0.42929077;0.00000000;0.00000000;3.79009247;2.73956156;
3180573;45.4;32;0;0;0;-66.7;3.34;1.09;-0.02;3.34;11054;0.387;0.0295;0.0001;1.3538;0.0048;111408;114740;143.096;0;0;0.512;9.985;3180555;0.0295;0.0001;1.3534;0.0048;8.603;2302.38;1.11;3.71;6.875;691.452;712.139;1;3180555;0;0;0;0;0;0;0;0;0;3182000;37.34958036;-121.93056933;0.42929077;0.00000000;0.00000000;3.79009247;2.73956156;
3180655;45.5;32;0;0;0;-67;4.53;1.57;-0.07;4.53;11470;0.423;0.0295;0.0001;1.3556;0.0048;111510;114842;168.288;0;0;0.62;10.565;3180555;0.0295;0.0001;1.3534;0.0048;8.603;2302.38;1.11;3.71;6.875;691.452;712.139;1;3180555;0;0;0;0;0;0;0;0;0;3182000;37.34958036;-121.93056933;0.42929077;0.00000000;0.00000000;3.79009247;2.73956156;
3180774;45.5;32;0;0;0;-65.7;5.81;2.31;-0.12;5.83;13072;0.507;0.0296;0.0001;1.359;0.0048;111665;114997;112.296;0;0;0.83;12.033;3180744;0.0295;0.0001;1.3556;0.0048;8.677;2322.22;2.37;4.46;7.124;692.303;712.989;1;3180772;0;0;0;0;0;0;0;0;0;3182000;37.34958036;-121.93056933;0.42929077;0.00000000;0.00000000;3.79009247;2.73956156;
3180868;45.8;32.9;0;0;0;-230.8;3.65;1.61;0.03;3.61;14508;0.5;0.0297;0.0001;1.3609;0.0048;111799;115131;180.98;0;0;1.007;13.626;3180838;0.0296;0.0001;1.3608;0.0048;8.727;2335.48;0.2;1.05;8.827;693.818;714.504;1;3180838;0;0;0;0;0;0;0;0;0;3182000;37.34958036;-121.93056933;0.42929077;0.00000000;0.00000000;3.79009247;2.73956156;
3180950;45.8;33;0;0;0;-248.8;0;0;0;0;14055;0.449;0.0297;0.0001;1.3609;0.0048;111924;115256;171.397;0;0;0.773;12.447;3180919;0.0297;0.0001;1.3609;0.0048;8.993;2406.66;0;0;8.906;694.625;715.311;1;3180937;0;0;0;0;0;0;0;0;0;3182000;37.34958036;-121.93056933;0.42929077;0.00000000;0.00000000;3.79009247;2.73956156;
3181039;45.3;33.1;0;0;0;-271.1;0;0;0;0;12832;0.393;0.0297;0.0001;1.3609;0.0048;112039;115371;195.924;0;0;0.603;11.107;3181020;0.0297;0.0001;1.3609;0.0048;8.802;2355.43;0;0;8.238;695.351;716.037;1;3181020;0;0;0;0;0;0;0;0;0;3182000;37.34958036;-121.93056933;0.42929077;0.00000000;0.00000000;3.79009247;2.73956156;
3181103;45.4;33.2;0;0;0;-273;0;0;0;0;11952;0.361;0.0297;0.0001;1.3609;0.0048;112107;115439;316.159;0;0;0.485;10.046;3181020;0.0297;0.0001;1.3609;0.0048;8.802;2355.43;0;0;8.238;695.351;716.037;1;3181020;0;0;0;0;0;0;0;0;0;3182000;37.34958036;-121.93056933;0.42929077;0.00000000;0.00000000;3.79009247;2.73956156;
3181190;46.4;32.7;0;0;0;-199.5;0;0;0;0;10641;0.329;0.0297;0.0001;1.3609;0.0048;112199;115531;97.0535;0;0;0.383;9.073;3181103;0.0297;0.0001;1.3609;0.0048;9.135;2444.78;0;0;7.414;696.003;716.689;1;3181137;0;0;0;0;0;0;0;0;0;3183000;37.34957734;-121.93056955;0.49960327;0.00000000;0.00000000;3.79009247;2.72845173;
3181287;45.7;33.2;0;0;0;-272.8;0;0;0;0;9397;0.282;0.0297;0.0001;1.3609;0.0048;112281;115613;304.161;0;0;0.291;7.961;3181199;0.0297;0.0001;1.3609;0.0048;8.636;2311.19;0;0;6.599;696.58;717.267;1;3181220;0;0;0;0;0;0;0;0;0;3183000;37.34957734;-121.93056955;0.49960327;0.00000000;0.00000000;3.79009247;2.72845173;
3181371;45.4;32.1;0;0;0;-98.5;1.38;0.33;0.23;1.41;8382;0.269;0.0297;0.0001;1.3613;0.0048;112352;115684;257.229;0;0;0.206;7.294;3181287;0.0297;0.0001;1.3609;0.0048;8.529;2282.59;0;0;5.828;697.083;717.77;1;3181328;0;0;0;0;0;0;0;0;0;3183000;37.34957734;-121.93056955;0.49960327;0.00000000;0.00000000;3.79009247;2.72845173;
3181490;46.5;32.2;0;0;0;-95.1;3.41;0.82;-0.04;3.41;8134;0.294;0.0297;0.0001;1.3626;0.0048;112447;115779;235.775;0;0;0.254;7.338;3181464;0.0297;0.0001;1.3616;0.0048;8.876;2375.43;0.48;2.73;5.085;697.667;718.353;1;3181477;0;0;0;0;0;0;0;0;0;3183000;37.34957734;-121.93056955;0.49960327;0.00000000;0.00000000;3.79009247;2.72845173;
3181546;45.6;32.1;0;0;0;-76;4.44;1.17;-0.04;4.45;8555;0.322;0.0297;0.0001;1.3634;0.0048;112501;115833;203.63;0;0;0.334;8.096;3181464;0.0297;0.0001;1.3616;0.0048;8.876;2375.43;0.48;2.73;5.085;697.667;718.353;1;3181477;0;0;0;0;0;0;0;0;0;3183000;37.34957734;-121.93056955;0.49960327;0.00000000;0.00000000;3.79009247;2.72845173;
3181670;45.8;32;0;0;0;-66.8;5.84;1.84;-0.13;5.86;10354;0.412;0.0298;0.0001;1.3662;0.0048;112625;115957;64.8188;0;0;0.528;9.58;3181582;0.0297;0.0001;1.3634;0.0048;8.951;2395.49;0.71;3.58;5.315;698.449;719.135;1;3181582;0;0;0;0;0;0;0;0;0;3183000;37.34957734;-121.93056955;0.49960327;0.00000000;0.00000000;3.79009247;2.72845173;
3181735;45.7;32.1;0;0;0;-67.7;8.23;3.22;-0.3;8.27;11882;0.498;0.0298;0.0001;1.3686;0.0048;112702;116034;44.9833;0;0;0.857;11.836;3181670;0.0298;0.0001;1.3662;0.0048;9.018;2413.37;0.59;5.6;6.437;699.219;719.905;1;3181716;0;0;0;0;0;0;0;0;0;3183000;37.34957734;-121.93056955;0.49960327;0.00000000;0.00000000;3.79009247;2.72845173;
3181856;45.8;32;0;0;0;-70.4;13.83;7.25;-0.57;13.87;16117;0.73;0.03;0.0001;1.3768;0.0048;112851;116183;346.545;0;0;1.559;15.895;3181787;0.0299;0.0001;1.3706;0.0048;8.677;2322.22;7.02;13.05;7.994;699.945;720.632;1;3181716;0;0;0;0;0;0;0;0;0;3183000;37.34957734;-121.93056955;0.49960327;0.00000000;0.00000000;3.79009247;2.72845173;
3181927;45.8;32.1;0;0;0;-67.8;14.31;10.13;-0.56;14.24;22309;0.93;0.0302;0.0001;1.3876;0.0048;113063;116395;63.7794;0;0;2.702;22.119;3181907;0.0302;0.0001;1.385;0.0048;8.918;2386.57;12.27;13.76;12.635;701.479;722.165;1;3181875;0;0;0;0;0;0;0;0;0;3183000;37.34957734;-121.93056955;0.49960327;0.00000000;0.00000000;3.79009247;2.72845173;
3182009;46.1;33;0;0;0;-243.8;1.63;1.25;0.13;1.55;25105;0.857;0.0303;0.0001;1.3897;0.0048;113298;116630;143.826;0;0;2.95;23.528;3181976;0.0303;0.0001;1.3897;0.0048;8.628;2308.99;0;0;15.42;702.938;723.624;1;3181976;0;0;0;0;0;0;0;0;0;3183000;37.34957734;-121.93056955;0.49960327;0.00000000;0.00000000;3.79009247;2.72845173;
3182057;45.3;33.1;0;0;0;-272.4;0;0;0;0;24687;0.805;0.0303;0.0001;1.3897;0.0048;113447;116779;115.714;0;0;2.539;21.776;3181976;0.0303;0.0001;1.3897;0.0048;8.628;2308.99;0;0;15.42;702.938;723.624;1;3181976;0;0;0;0;0;0;0;0;0;3183000;37.34957734;-121.93056955;0.49960327;0.00000000;0.00000000;3.79009247;2.72845173;
3182207;45.3;33;0;0;0;-255.2;0;0;0;0;23086;0.736;0.0303;0.0001;1.3897;0.0048;113651;116983;103.425;0;0;2.175;20.221;3182081;0.0303;0.0001;1.3897;0.0048;8.71;2331.06;0;0;15.32;704.335;725.021;1;3182093;0;0;0;0;0;0;0;0;0;3184000;37.34957767;-121.93057198;-0.06103516;0.00000000;0.00000000;3.79009247;2.51024532;
3182304;45.9;33.2;0;0;0;-273.1;0;0;0;0;19976;0.626;0.0303;0.0001;1.3897;0.0048;113952;117284;138.038;0;0;1.681;17.903;3182219;0.0303;0.0001;1.3897;0.0048;8.562;2291.38;0;0;14.324;705.601;726.288;1;3182247;0;0;0;0;0;0;0;0;0;3184000;37.34957767;-121.93057198;-0.06103516;0.00000000;0.00000000;3.79009247;2.51024532;
3182388;45.6;32.2;0;0;0;-83.6;0.15;0.08;-0.06;0.18;18204;0.585;0.0303;0.0001;1.3898;0.0048;114110;117442;260.78;0;0;1.24;15.892;3182313;0.0303;0.0001;1.3897;0.0048;9.152;2449.28;0;0;12.395;707.464;728.15;1;3182327;0;0;0;0;0;0;0;0;0;3184000;37.34957767;-121.93057198;-0.06103516;0.00000000;0.00000000;3.79009247;2.51024532;
3182481;45.6;32.2;0;0;0;-87.6;1.41;0.67;0.04;1.37;17278;0.56;0.0303;0.0001;1.3904;0.0048;114209;117541;87.9294;0;0;1.154;15.117;3182427;0.0303;0.0001;1.3898;0.0048;8.993;2406.66;-0.3;0.69;11.295;708.445;729.131;1;3182427;0;0;0;0;0;0;0;0;0;3184000;37.34957767;-121.93057198;-0.06103516;0.00000000;0.00000000;3.79009247;2.51024532;
3182548;45.7;32.1;0;0;0;-68.5;1.3;0.61;0.05;1.31;16092;0.528;0.0303;0.0001;1.391;0.0048;114350;117682;245.509;0;0;1.008;14.31;3182524;0.0303;0.0001;1.3908;0.0048;8.62;2306.78;0.84;0.8;10.22;709.643;730.329;1;3182548;0;0;0;0;0;0;0;0;0;3184000;37.34957767;-121.93057198;-0.06103516;0.00000000;0.00000000;3.79009247;2.51024532;
3182609;45.4;32.1;0;0;0;-69.6;1.57;0.69;0.08;1.56;15413;0.507;0.0303;0.0001;1.3915;0.0048;114441;117773;340.483;0;0;0.925;13.605;3182524;0.0303;0.0001;1.3908;0.0048;8.62;2306.78;0.84;0.8;10.22;709.643;730.329;1;3182548;0;0;0;0;0;0;0;0;0;3184000;37.34957767;-121.93057198;-0.06103516;0.00000000;0.00000000;3.79009247;2.51024532;
3182691;45.6;32.1;0;0;0;-68.3;1.64;0.69;0.03;1.65;14558;0.484;0.0303;0.0001;1.3924;0.0048;114568;117900;16.8108;0;0;0.816;13.017;3182610;0.0303;0.0001;1.3915;0.0048;8.595;2300.18;1.54;1.4;9.565;710.5;731.186;1;3182627;0;0;0;0;0;0;0;0;0;3184000;37.34957767;-121.93057198;-0.06103516;0.00000000;0.00000000;3.79009247;2.51024532;
3182752;45.5;32.2;0;0;0;-82;2.14;0.87;0.06;2.13;14145;0.479;0.0303;0.0001;1.3929;0.0048;114650;117982;292.741;0;0;0.786;12.624;3182728;0.0303;0.0001;1.3926;0.0048;8.71;2331.06;0.33;2.24;8.898;711.536;732.223;1;3182749;0;0;0;0;0;0;0;0;0;3184000;37.34957767;-121.93057198;-0.06103516;0.00000000;0.00000000;3.79009247;2.51024532;
3182839;45.8;32.2;0;0;0;-82.9;2.23;0.9;0.01;2.23;13694;0.46;0.0304;0.0001;1.394;0.0048;114772;118104;23.4149;0;0;0.755;12.354;3182819;0.0304;0.0001;1.3937;0.0048;8.644;2313.39;1.7;1.72;8.588;712.306;732.993;1;3182819;0;0;0;0;0;0;0;0;0;3184000;37.34957767;-121.93057198;-0.06103516;0.00000000;0.00000000;3.79009247;2.51024532;
3182899;45.5;32.1;0;0;0;-68;2.24;0.87;-0.07;2.24;13408;0.454;0.0304;0.0001;1.3947;0.0048;114851;118183;109.299;0;0;0.732;12.032;3182819;0.0304;0.0001;1.3937;0.0048;8.644;2313.39;1.7;1.72;8.588;712.306;732.993;1;3182819;0;0;0;0;0;0;0;0;0;3184000;37.34957767;-121.93057198;-0.06103516;0.00000000;0.00000000;3.79009247;2.51024532;
3183050;45.6;32.1;0;0;0;-66.9;2.23;0.85;0.06;2.23;12854;0.431;0.0304;0.0001;1.3959;0.0048;115006;118338;14.3549;0;0;0.675;11.666;3182935;0.0304;0.0001;1.395;0.0048;8.661;2317.81;1.69;1.32;8.236;713.287;733.974;1;3182955;0;0;0;0;0;0;0;0;0;3184000;37.34957767;-121.93057198;-0.06103516;0.00000000;0.00000000;3.79009247;2.51024532;
3183141;45.5;32.1;0;0;0;-67;2.15;0.79;0;2.15;12476;0.419;0.0304;0.0001;1.3969;0.0048;115116;118448;152.225;0;0;0.611;11.268;3183081;0.0304;0.0001;1.396;0.0048;8.636;2311.19;0.51;1.78;7.978;714.007;734.694;1;3183121;0;0;0;0;0;0;0;0;0;3185000;37.34957981;-121.93057503;-0.15087891;0.00000000;0.00000000;3.79009247;2.50000000;
3183230;45.5;32.1;0;0;0;-67.4;2.24;0.79;0.01;2.24;12055;0.41;0.0305;0.0001;1.3981;0.0048;115260;118592;157.996;0;0;0.572;10.95;3183147;0.0304;0.0001;1.3972;0.0048;8.628;2308.99;0.08;2.4;7.668;714.908;735.594;1;3183169;0;0;0;0;0;0;0;0;0;3185000;37.34957981;-121.93057503;-0.15087891;0.00000000;0.00000000;3.79009247;2.50000000;
3183352;45.7;32.3;0;0;0;-96.1;2.21;0.76;0.01;2.21;11653;0.398;0.0305;0.0001;1.3992;0.0048;115398;118730;163.258;0;0;0.533;10.595;3183237;0.0305;0.0001;1.3981;0.0048;8.71;2331.06;0.47;0.79;7.484;715.584;736.271;1;3183318;0;0;0;0;0;0;0;0;0;3185000;37.34957981;-121.93057503;-0.15087891;0.00000000;0.00000000;3.79009247;2.50000000;
3183411;45.5;32.1;0;0;0;-67.5;2.3;0.77;0.06;2.31;11442;0.386;0.0305;0.0001;1.3998;0.0048;115466;118798;297.985;0;0;0.519;10.299;3183373;0.0305;0.0001;1.3992;0.0048;8.636;2311.19;0.73;1.81;7.234;716.441;737.127;1;3183391;0;0;0;0;0;0;0;0;0;3185000;37.34957981;-121.93057503;-0.15087891;0.00000000;0.00000000;3.79009247;2.50000000;
3183498;45.9;32.1;0;0;0;-68.5;2.89;0.96;-0.04;2.89;11288;0.389;0.0305;0.0001;1.4005;0.0048;115532;118864;261.352;0;0;0.519;10.197;3183373;0.0305;0.0001;1.3992;0.0048;8.636;2311.19;0.73;1.81;7.234;716.441;737.127;1;3183391;0;0;0;0;0;0;0;0;0;3185000;37.34957981;-121.93057503;-0.15087891;0.00000000;0.00000000;3.79009247;2.50000000;
3183589;45.8;32.1;0;0;0;-74.1;3.55;1.21;-0.04;3.56;11406;0.403;0.0305;0.0001;1.4019;0.0048;115634;118966;262.757;0;0;0.566;10.428;3183513;0.0305;0.0001;1.401;0.0048;8.636;2311.19;0.41;2.72;7.004;717.478;738.164;1;3183531;0;0;0;0;0;0;0;0;0;3185000;37.34957981;-121.93057503;-0.15087891;0.00000000;0.00000000;3.79009247;2.50000000;
3183695;45.5;32.1;0;0;0;-69.4;3.56;1.28;-0.01;3.56;12029;0.43;0.0306;0.0001;1.4039;0.0048;115779;119111;305.775;0;0;0.622;11.024;3183624;0.0305;0.0001;1.4019;0.0048;8.669;2320.01;0.49;2.63;7.085;717.912;738.599;1;3183625;0;0;0;0;0;0;0;0;0;3185000;37.34957981;-121.93057503;-0.15087891;0.00000000;0.00000000;3.79009247;2.50000000;
3183815;45.5;32.2;0;0;0;-98.3;4.25;1.63;-0.08;4.26;12675;0.457;0.0306;0.0001;1.4057;0.0048;115893;119225;354.154;0;0;0.757;11.735;3183695;0.0306;0.0001;1.4039;0.0048;8.677;2322.22;1.62;4.16;7.47;718.8;739.487;1;3183713;0;0;0;0;0;0;0;0;0;3185000;37.34957981;-121.93057503;-0.15087891;0.00000000;0.00000000;3.79009247;2.50000000;
3183889;46.6;32.9;0;0;0;-212.2;2.26;0.89;0.12;2.24;13148;0.427;0.0307;0.0001;1.4071;0.0048;116053;119385;200.387;0;0;0.727;12.066;3183832;0.0306;0.0001;1.4057;0.0048;8.826;2362.09;1.14;4.34;7.871;719.514;740.201;1;3183832;0;0;0;0;0;0;0;0;0;3185000;37.34957981;-121.93057503;-0.15087891;0.00000000;0.00000000;3.79009247;2.50000000;
3183981;45.7;32.9;0;0;0;-208.7;0;0;0;0;12281;0.381;0.0307;0.0001;1.4071;0.0048;116161;119493;239.216;0;0;0.559;10.688;3183896;0.0307;0.0001;1.4071;0.0048;8.603;2302.38;0;0;8.162;720.508;741.194;1;3183919;0;0;0;0;0;0;0;0;0;3185000;37.34957981;-121.93057503;-0.15087891;0.00000000;0.00000000;3.79009247;2.50000000;
3184037;46.5;33.1;0;0;0;-247.7;0;0;0;0;11492;0.355;0.0307;0.0001;1.4071;0.0048;116227;119559;217.579;0;0;0.446;9.695;3183988;0.0307;0.0001;1.4071;0.0048;9.127;2442.53;0;0;7.621;721.178;741.864;1;3184010;0;0;0;0;0;0;0;0;0;3185000;37.34957981;-121.93057503;-0.15087891;0.00000000;0.00000000;3.79009247;2.50000000;
3184143;45.5;32.3;0;0;0;-112;1.91;0.57;0.12;1.93;10480;0.358;0.0307;0.0001;1.4077;0.0048;116319;119651;348.29;0;0;0.376;9.259;3184095;0.0307;0.0001;1.4071;0.0048;9.01;2411.13;0;0;7.129;721.588;742.274;1;3184127;0;0;0;0;0;0;0;0;0;3186000;37.34957866;-121.93058060;-0.43762207;0.00000000;0.00000000;3.79009247;2.50000000;
3184224;45.6;32.3;0;0;0;-106.7;3.7;1.15;-0.08;3.73;10426;0.371;0.0307;0.0001;1.409;0.0048;116411;119743;91.7628;0;0;0.469;9.484;3184157;0.0307;0.0001;1.4081;0.0048;8.677;2322.22;0.69;3.17;6.443;722.327;743.013;1;3184127;0;0;0;0;0;0;0;0;0;3186000;37.34957866;-121.93058060;-0.43762207;0.00000000;0.00000000;3.79009247;2.50000000;
3184279;45.6;32.2;0;0;0;-89.7;4.32;1.41;-0.02;4.31;10731;0.395;0.0307;0.0001;1.4101;0.0048;116476;119808;30.3836;0;0;0.545;9.995;3184231;0.0307;0.0001;1.409;0.0048;8.628;2308.99;1.78;3.86;6.475;722.73;743.416;1;3184252;0;0;0;0;0;0;0;0;0;3186000;37.34957866;-121.93058060;-0.43762207;0.00000000;0.00000000;3.79009247;2.50000000;
3184383;45.6;32.2;0;0;0;-91.6;4.99;1.78;-0.07;5;11659;0.437;0.0308;0.0001;1.4121;0.0048;116582;119914;278.885;0;0;0.675;10.883;3184280;0.0307;0.0001;1.4101;0.0048;8.612;2304.58;2;4.77;6.664;723.134;743.82;1;3184252;0;0;0;0;0;0;0;0;0;3186000;37.34957866;-121.93058060;-0.43762207;0.00000000;0.00000000;3.79009247;2.50000000;
3184432;45.7;32.2;0;0;0;-82.7;5.76;2.28;-0.15;5.78;12561;0.475;0.0308;0.0001;1.4138;0.0048;116660;119992;289.951;0;0;0.833;12.058;3184409;0.0308;0.0001;1.4121;0.0048;8.926;2388.8;0.59;4.29;7.253;723.798;744.484;1;3184383;0;0;0;0;0;0;0;0;0;3186000;37.34957866;-121.93058060;-0.43762207;0.00000000;0.00000000;3.79009247;2.50000000;
3184549;45.5;32.2;0;0;0;-91;4.92;2.07;-0.02;4.9;13509;0.498;0.0308;0.0001;1.4154;0.0048;116745;120077;301.897;0;0;0.943;12.922;3184409;0.0308;0.0001;1.4121;0.0048;8.926;2388.8;0.59;4.29;7.253;723.798;744.484;1;3184432;0;0;0;0;0;0;0;0;0;3186000;37.34957866;-121.93058060;-0.43762207;0.00000000;0.00000000;3.79009247;2.50000000;
3184625;45.5;32.3;0;0;0;-111.1;1.56;0.64;0.09;1.53;13871;0.468;0.0309;0.0001;1.4163;0.0048;116912;120244;277.768;0;0;0.796;12.79;3184550;0.0308;0.0001;1.4154;0.0048;8.653;2315.6;-0.04;3.95;8.392;724.798;745.484;1;3184586;0;0;0;0;0;0;0;0;0;3186000;37.34957866;-121.93058060;-0.43762207;0.00000000;0.00000000;3.79009247;2.50000000;
3184672;45.5;32.3;0;0;0;-93;1.4;0.55;0.07;1.43;13404;0.442;0.0309;0.0001;1.4167;0.0048;116991;120323;341.977;0;0;0.681;11.913;3184625;0.0309;0.0001;1.4163;0.0048;8.677;2322.22;1.63;0.88;8.608;725.841;746.527;1;3184586;0;0;0;0;0;0;0;0;0;3186000;37.34957866;-121.93058060;-0.43762207;0.00000000;0.00000000;3.79009247;2.50000000;
3184727;45.6;32.2;0;0;0;-81.9;3.33;1.29;-0.14;3.36;13133;0.458;0.0309;0.0001;1.4175;0.0048;117068;120400;284.481;0;0;0.714;11.828;3184680;0.0309;0.0001;1.4167;0.0048;8.628;2308.99;1.42;3.26;8.317;726.331;747.017;1;3184700;0;0;0;0;0;0;0;0;0;3186000;37.34957866;-121.93058060;-0.43762207;0.00000000;0.00000000;3.79009247;2.50000000;
3184862;46;32.3;0;0;0;-109.5;5.14;2.13;-0.11;5.14;13738;0.511;0.0309;0.0001;1.4199;0.0048;117190;120522;43.7202;0;0;0.904;12.679;3184746;0.0309;0.0001;1.4175;0.0048;8.628;2308.99;1.49;4.54;8.154;726.809;747.495;1;3184788;0;0;0;0;0;0;0;0;0;3186000;37.34957866;-121.93058060;-0.43762207;0.00000000;0.00000000;3.79009247;2.50000000;
3184947;46.2;32.2;0;0;0;-82.1;5.16;2.38;-0.08;5.17;15313;0.566;0.031;0.0001;1.4236;0.0048;117374;120706;268.728;0;0;1.131;14.097;3184884;0.0309;0.0001;1.4199;0.0048;8.628;2308.99;4.02;6.11;8.54;727.573;748.259;1;3184908;0;0;0;0;0;0;0;0;0;3186000;37.34957866;-121.93058060;-0.43762207;0.00000000;0.00000000;3.79009247;2.50000000;
3185028;45.8;32.3;0;0;0;-108.1;4.36;2.15;-0.04;4.34;16358;0.585;0.0311;0.0001;1.4261;0.0048;117524;120856;282.551;0;0;1.28;15.19;3184977;0.031;0.0001;1.4245;0.0048;8.71;2331.06;2.55;4.54;9.748;729.007;749.693;1;3184908;0;0;0;0;0;0;0;0;0;3186000;37.34957866;-121.93058060;-0.43762207;0.00000000;0.00000000;3.79009247;2.50000000;
3185127;45.5;32.2;0;0;0;-85.4;2.73;1.36;0.08;2.71;16723;0.575;0.0311;0.0001;1.4277;0.0048;117675;121007;353.988;0;0;1.226;15.345;3185078;0.0311;0.0001;1.4267;0.0048;8.935;2391.03;0.43;3.05;10.282;729.938;750.624;1;3185057;0;0;0;0;0;0;0;0;0;3186000;37.34957866;-121.93058060;-0.43762207;0.00000000;0.00000000;3.79009247;2.50000000;
3185208;46.6;32.4;0;0;0;-123.1;1.67;0.81;0.07;1.65;16417;0.534;0.0311;0.0001;1.4287;0.0048;117823;121155;212.432;0;0;1.132;14.85;3185159;0.0311;0.0001;1.4282;0.0048;8.661;2317.81;2.5;2.39;10.365;730.876;751.562;1;3185146;0;0;0;0;0;0;0;0;0;3187000;37.34957837;-121.93058345;-0.85165405;0.00000000;0.00000000;3.79009247;2.50000000;
3185306;45.4;33.3;0;0;0;-273;0;0;0;0;15306;0.487;0.0311;0.0001;1.4287;0.0048;117958;121290;39.1766;0;0;0.899;13.362;3185226;0.0311;0.0001;1.4287;0.0048;8.71;2331.06;0;0;10.192;731.496;752.183;1;3185248;0;0;0;0;0;0;0;0;0;3187000;37.34957837;-121.93058345;-0.85165405;0.00000000;0.00000000;3.79009247;2.50000000;
3185367;45.5;33.3;0;0;0;-249.9;0;0;0;0;14391;0.451;0.0311;0.0001;1.4287;0.0048;118041;121373;305.233;0;0;0.747;12.243;3185306;0.0311;0.0001;1.4287;0.0048;9.177;2456.03;0;0;9.495;732.334;753.021;1;3185331;0;0;0;0;0;0;0;0;0;3187000;37.34957837;-121.93058345;-0.85165405;0.00000000;0.00000000;3.79009247;2.50000000;
3185512;45.3;33.3;0;0;0;-273.1;0;0;0;0;12524;0.38;0.0311;0.0001;1.4287;0.0048;118189;121521;205.139;0;0;0.587;10.957;3185422;0.0311;0.0001;1.4287;0.0048;8.521;2280.4;0;0;8.928;732.844;753.53;1;3185422;0;0;0;0;0;0;0;0;0;3187000;37.34957837;-121.93058345;-0.85165405;0.00000000;0.00000000;3.79009247;2.50000000;
3185598;46.4;33.4;0;0;0;-272.6;0;0;0;0;10780;0.323;0.0311;0.0001;1.4287;0.0048;118316;121648;254.161;0;0;0.417;9.376;3185512;0.0311;0.0001;1.4287;0.0048;8.636;2311.19;0;0;7.77;733.769;754.455;1;3185554;0;0;0;0;0;0;0;0;0;3187000;37.34957837;-121.93058345;-0.85165405;0.00000000;0.00000000;3.79009247;2.50000000;
